{
  "Lider": [
    {
      "place_id": "ChIJn4rlZRWpWpERyM9dddkAZno",
      "name": "Supermercado Lider",
      "address": "Pedro Montt esquina, Av. Diego Portales S/N, Arica",
      "lat": -18.4692074,
      "lon": -70.3081698,
      "rating": 4.3,
      "user_ratings_total": 1913,
      "types": [
        "supermarket",
        "grocery_or_supermarket",
        "food",
        "store",
        "point_of_interest",
        "establishment"
      ],
      "business_status": "OPERATIONAL"
    },
    {
      "place_id": "ChIJpQ6RpF3RYpYRBcP3X5uA2nA",
      "name": "Supermercado Lider",
      "address": "Av. Diego Portales 2291, Arica",
      "lat": -18.4831765,
      "lon": -70.2929298,
      "rating": 4.2,
      "user_ratings_total": 4324,
      "types": [
        "supermarket",
        "grocery_or_supermarket",
        "food",
        "store",
        "point_of_interest",
        "establishment"
      ],
      "business_status": "OPERATIONAL"
    },
    {
      "place_id": "ChIJ95iY5QoUUpEROVbIEWU-itk",
      "name": "Supermercado Lider",
      "address": "Av. Héroes de la Concepción 2653, Iquique",
      "lat": -20.235014,
      "lon": -70.1435904,
      "rating": 4.1,
      "user_ratings_total": 7452,
      "types": [
        "supermarket",
        "grocery_or_supermarket",
        "store",
        "food",
        "point_of_interest",
        "establishment"
      ],
      "business_status": "OPERATIONAL"
    },
    {
      "place_id": "ChIJ43BkBlIqrpYRlPOSdyparL4",
      "name": "Supermercado Lider",
      "address": "Caparrosa, Av. Pedro Aguirre Cerda, Antofagasta",
      "lat": -23.5645086,
      "lon": -70.39047219999999,
      "rating": 4.1,
      "user_ratings_total": 5712,
      "types": [
        "supermarket",
        "grocery_or_supermarket",
        "point_of_interest",
        "store",
        "food",
        "establishment"
      ],
      "business_status": "OPERATIONAL"
    },
    {
      "place_id": "ChIJCw4cjG7Vr5YRYx0CNjJAd5Q",
      "name": "Supermercado Lider",
      "address": "José Ignacio Zenteno 21, Antofagasta",
      "lat": -23.6368112,
      "lon": -70.3964258,
      "rating": 4.2,
      "user_ratings_total": 7073,
      "types": [
        "supermarket",
        "grocery_or_supermarket",
        "point_of_interest",
        "store",
        "food",
        "establishment"
      ],
      "business_status": "OPERATIONAL"
    },
    {
      "place_id": "ChIJX1-W_dIqrpYRFMhyST981zY",
      "name": "Express de Lider",
      "address": "Av. Edmundo Pérez Zujovic, Antofagasta",
      "lat": -23.6193191,
      "lon": -70.39213699999999,
      "rating": 4.4,
      "user_ratings_total": 2499,
      "types": [
        "supermarket",
        "grocery_or_supermarket",
        "point_of_interest",
        "store",
        "food",
        "establishment"
      ],
      "business_status": "OPERATIONAL"
    },
    {
      "place_id": "ChIJDVSmQ-MJrJYRF7l7crZOYTg",
      "name": "Supermercado Lider",
      "address": "Huaytiquina 1425, local 6, Calama",
      "lat": -22.4361333,
      "lon": -68.91391589999999,
      "rating": 4.2,
      "user_ratings_total": 3051,
      "types": [
        "supermarket",
        "grocery_or_supermarket",
        "food",
        "store",
        "point_of_interest",
        "establishment"
      ],
      "business_status": "OPERATIONAL"
    },
    {
      "place_id": "ChIJz_wl64EJrJYRfRpma17MDuo",
      "name": "Express de Lider",
      "address": "Av. Chorrillos 1821, Calama",
      "lat": -22.450325,
      "lon": -68.9216606,
      "rating": 4.1,
      "user_ratings_total": 616,
      "types": [
        "supermarket",
        "grocery_or_supermarket",
        "food",
        "store",
        "point_of_interest",
        "establishment"
      ],
      "business_status": "OPERATIONAL"
    },
    {
      "place_id": "ChIJ_ezfUyp3rZYRKnOPAKF-bmU",
      "name": "Manul Collao",
      "address": "El Teniente 546-560, Tocopilla",
      "lat": -22.1069312,
      "lon": -70.2107114,
      "rating": 3.5,
      "user_ratings_total": 4,
      "types": [
        "supermarket",
        "grocery_or_supermarket",
        "food",
        "point_of_interest",
        "store",
        "establishment"
      ],
      "business_status": "OPERATIONAL"
    },
    {
      "place_id": "ChIJFdsNlvPjsZYRV4eLKulrdmA",
      "name": "Minimarket Donde el Profe",
      "address": "Av. Bernardo O'Higgins 1080, Mejillones",
      "lat": -23.1086603,
      "lon": -70.44790549999999,
      "rating": 4.3,
      "user_ratings_total": 15,
      "types": [
        "supermarket",
        "grocery_or_supermarket",
        "point_of_interest",
        "store",
        "food",
        "establishment"
      ],
      "business_status": "OPERATIONAL"
    },
    {
      "place_id": "ChIJGTUmDFQ0u5YRRsFol6RUtdA",
      "name": "RM1 Supermercado Perucci",
      "address": "San Martín 217, Taltal",
      "lat": -25.4067009,
      "lon": -70.48431169999999,
      "rating": 4.2,
      "user_ratings_total": 306,
      "types": [
        "supermarket",
        "grocery_or_supermarket",
        "food",
        "store",
        "point_of_interest",
        "establishment"
      ],
      "business_status": "OPERATIONAL"
    },
    {
      "place_id": "ChIJ-SnJzlU0u5YRZCQAWhkv0FI",
      "name": "Supermercado San Pablo",
      "address": "Serrano 956, Taltal",
      "lat": -25.4062259,
      "lon": -70.481409,
      "rating": 4.3,
      "user_ratings_total": 172,
      "types": [
        "supermarket",
        "grocery_or_supermarket",
        "food",
        "store",
        "point_of_interest",
        "establishment"
      ],
      "business_status": "OPERATIONAL"
    },
    {
      "place_id": "ChIJaSXEOko1u5YR5LkMN-U-ug0",
      "name": "Express de Lider",
      "address": "F-30-E Maitencillo Puchuncaví, Taltal",
      "lat": -25.4151388,
      "lon": -70.4738261,
      "rating": 3.5,
      "user_ratings_total": 58,
      "types": [
        "supermarket",
        "grocery_or_supermarket",
        "food",
        "store",
        "point_of_interest",
        "establishment"
      ],
      "business_status": "CLOSED_PERMANENTLY"
    },
    {
      "place_id": "ChIJo0uqy7t1qZYRKnhDf6R2Nwo",
      "name": "Supermercado Ketal",
      "address": "Cam. del Inca 381, San Pedro de Atacama",
      "lat": -22.9090371,
      "lon": -68.1956051,
      "rating": 4.1,
      "user_ratings_total": 241,
      "types": [
        "supermarket",
        "grocery_or_supermarket",
        "food",
        "point_of_interest",
        "store",
        "establishment"
      ],
      "business_status": "OPERATIONAL"
    },
    {
      "place_id": "ChIJQSdDUDwFmJYR12j-MFiuZ9U",
      "name": "Lider",
      "address": "Los Carrera s/n esq, El Inca, Copiapó",
      "lat": -27.3900508,
      "lon": -70.3016433,
      "rating": 4.2,
      "user_ratings_total": 3401,
      "types": [
        "supermarket",
        "grocery_or_supermarket",
        "point_of_interest",
        "store",
        "food",
        "establishment"
      ],
      "business_status": "OPERATIONAL"
    },
    {
      "place_id": "ChIJy1-UCCYDmJYRuMmcZtScsYs",
      "name": "Lider Chacabuco - Copiapó",
      "address": "Chacabuco, Av. Copayapu &, Copiapó",
      "lat": -27.3693895,
      "lon": -70.3357517,
      "rating": 4,
      "user_ratings_total": 1352,
      "types": [
        "supermarket",
        "grocery_or_supermarket",
        "point_of_interest",
        "store",
        "food",
        "establishment"
      ],
      "business_status": "OPERATIONAL"
    },
    {
      "place_id": "ChIJ_weAcABJl5YRsNbABgdx32E",
      "name": "Hiper Líder Vallenar",
      "address": "Vallenar",
      "lat": -28.57712,
      "lon": -70.7733246,
      "rating": 5,
      "user_ratings_total": 5,
      "types": [
        "supermarket",
        "grocery_or_supermarket",
        "store",
        "food",
        "point_of_interest",
        "establishment"
      ],
      "business_status": "OPERATIONAL"
    },
    {
      "place_id": "ChIJRwds7t1pvZYRRtQaZeXNEgk",
      "name": "Unimarc",
      "address": "Batallón Atacama 319, Caldera",
      "lat": -27.0692847,
      "lon": -70.81905189999999,
      "rating": 3.7,
      "user_ratings_total": 2637,
      "types": [
        "supermarket",
        "grocery_or_supermarket",
        "store",
        "food",
        "point_of_interest",
        "establishment"
      ],
      "business_status": "OPERATIONAL"
    },
    {
      "place_id": "ChIJI1324XRCvZYRGEuZImPm414",
      "name": "CALDERA I",
      "address": "Batallón Atacama 319, Caldera",
      "lat": -27.0687437,
      "lon": -70.8089564,
      "rating": 4.6,
      "user_ratings_total": 107,
      "types": [
        "supermarket",
        "grocery_or_supermarket",
        "store",
        "food",
        "point_of_interest",
        "establishment"
      ],
      "business_status": "OPERATIONAL"
    },
    {
      "place_id": "ChIJR7lrCedpvZYR1rvcUTXVjOE",
      "name": "SUPERMERCADO Y HOSPEDAJE LA SUREÑA",
      "address": "Av. Diego de Almeyda 721, Caldera",
      "lat": -27.0663663,
      "lon": -70.8124203,
      "rating": 4.1,
      "user_ratings_total": 82,
      "types": [
        "supermarket",
        "grocery_or_supermarket",
        "store",
        "food",
        "point_of_interest",
        "establishment"
      ],
      "business_status": "OPERATIONAL"
    },
    {
      "place_id": "ChIJ5TEv6FZovZYR9ZwqhReYrzs",
      "name": "Supermercado Jana",
      "address": "Copiapó 554, Bahía Inglesa, Caldera",
      "lat": -27.1036771,
      "lon": -70.8551234,
      "rating": 3.8,
      "user_ratings_total": 67,
      "types": [
        "supermarket",
        "grocery_or_supermarket",
        "store",
        "food",
        "point_of_interest",
        "establishment"
      ],
      "business_status": "OPERATIONAL"
    },
    {
      "place_id": "ChIJw1wPZQdpvZYRidr24cDo9uI",
      "name": "Super Mercado KEPRI",
      "address": "Inca de Oro 1118 Caldera, Atacama, Caldera",
      "lat": -27.0731402,
      "lon": -70.8127372,
      "rating": 4.8,
      "user_ratings_total": 16,
      "types": [
        "supermarket",
        "grocery_or_supermarket",
        "store",
        "food",
        "point_of_interest",
        "establishment"
      ],
      "business_status": "OPERATIONAL"
    },
    {
      "place_id": "ChIJj9V_8OlpvZYRPfw9Gigd9bU",
      "name": "Gringo's Market",
      "address": "C-314 110, Caldera",
      "lat": -27.0689277,
      "lon": -70.8297393,
      "rating": 4.1,
      "user_ratings_total": 173,
      "types": [
        "supermarket",
        "grocery_or_supermarket",
        "store",
        "food",
        "point_of_interest",
        "establishment"
      ],
      "business_status": "OPERATIONAL"
    },
    {
      "place_id": "ChIJDa9u4OdpvZYRe4uCxj2il8A",
      "name": "SUPERMERCADO BETANIA",
      "address": "Gallo 598, Caldera",
      "lat": -27.067725,
      "lon": -70.8237307,
      "rating": 4.2,
      "user_ratings_total": 59,
      "types": [
        "supermarket",
        "grocery_or_supermarket",
        "store",
        "food",
        "point_of_interest",
        "establishment"
      ],
      "business_status": "OPERATIONAL"
    },
    {
      "place_id": "ChIJuUib8alDvZYRxwmnHg8Bcdc",
      "name": "DISTRIBUIDORA YEYMAR, CALDERA",
      "address": "Lebu 1013, Caldera",
      "lat": -27.0724207,
      "lon": -70.8119591,
      "rating": 4.4,
      "user_ratings_total": 22,
      "types": [
        "supermarket",
        "grocery_or_supermarket",
        "store",
        "food",
        "point_of_interest",
        "establishment"
      ],
      "business_status": "OPERATIONAL"
    },
    {
      "place_id": "ChIJ86yRnH3FvJYRNWtWLdo2vpo",
      "name": "Supermercados Zamora",
      "address": "Freire 613, Chañaral",
      "lat": -26.3468678,
      "lon": -70.6225596,
      "rating": 4,
      "user_ratings_total": 554,
      "types": [
        "supermarket",
        "grocery_or_supermarket",
        "store",
        "food",
        "point_of_interest",
        "establishment"
      ],
      "business_status": "OPERATIONAL"
    },
    {
      "place_id": "ChIJU55f7gPLkZYR-4Gn5xZxc-w",
      "name": "Supermercado Lider",
      "address": "Av Guillermo Ulriksen 3128, La Serena",
      "lat": -29.9441368,
      "lon": -71.24144249999999,
      "rating": 4.3,
      "user_ratings_total": 4308,
      "types": [
        "supermarket",
        "grocery_or_supermarket",
        "food",
        "point_of_interest",
        "store",
        "establishment"
      ],
      "business_status": "OPERATIONAL"
    },
    {
      "place_id": "ChIJf3Kqy87LkZYRfqyS86NiqP8",
      "name": "Supermercado Lider",
      "address": "Regimiento Arica 6145, La Serena",
      "lat": -29.94916199999999,
      "lon": -71.2695,
      "rating": 4.2,
      "user_ratings_total": 6046,
      "types": [
        "supermarket",
        "grocery_or_supermarket",
        "food",
        "point_of_interest",
        "store",
        "establishment"
      ],
      "business_status": "OPERATIONAL"
    },
    {
      "place_id": "ChIJXSdgOwHLkZYR_bcJQ8uXDPc",
      "name": "Supermercado Lider",
      "address": "Avda. Fco de Aguirre 02, La Serena",
      "lat": -29.901321,
      "lon": -71.25769670000001,
      "rating": 4.2,
      "user_ratings_total": 14480,
      "types": [
        "supermarket",
        "grocery_or_supermarket",
        "food",
        "point_of_interest",
        "store",
        "establishment"
      ],
      "business_status": "OPERATIONAL"
    },
    {
      "place_id": "ChIJyZFzhxHJkZYRPJyc4Oh1C4Q",
      "name": "Lider Coquimbo",
      "address": "Domeyko 55, Coquimbo",
      "lat": -29.9671483,
      "lon": -71.33270499999999,
      "rating": 4.1,
      "user_ratings_total": 4725,
      "types": [
        "supermarket",
        "grocery_or_supermarket",
        "food",
        "point_of_interest",
        "store",
        "establishment"
      ],
      "business_status": "OPERATIONAL"
    },
    {
      "place_id": "ChIJcUL65WPLkZYRzs5oSLu9jd0",
      "name": "Express de Líder La Florida",
      "address": "La Serena",
      "lat": -29.9216887,
      "lon": -71.2084383,
      "rating": 4.4,
      "user_ratings_total": 963,
      "types": [
        "supermarket",
        "grocery_or_supermarket",
        "food",
        "point_of_interest",
        "store",
        "establishment"
      ],
      "business_status": "OPERATIONAL"
    },
    {
      "place_id": "ChIJvytpqEPKkZYRbGU_3mcPbvE",
      "name": "Express de Lider",
      "address": "Av. Balmaceda 2154, La Serena",
      "lat": -29.92160549999999,
      "lon": -71.25399560000001,
      "rating": 4.3,
      "user_ratings_total": 2873,
      "types": [
        "supermarket",
        "grocery_or_supermarket",
        "food",
        "point_of_interest",
        "store",
        "establishment"
      ],
      "business_status": "OPERATIONAL"
    },
    {
      "place_id": "ChIJ9XGx8Lsqj5YRfs_jrxl0pEw",
      "name": "Super Bodega aCuenta",
      "address": "Av. Pdte. Salvador Allende G 824, local 10002, Illapel",
      "lat": -31.6375312,
      "lon": -71.1755912,
      "rating": 4,
      "user_ratings_total": 736,
      "types": [
        "supermarket",
        "grocery_or_supermarket",
        "store",
        "food",
        "point_of_interest",
        "establishment"
      ],
      "business_status": "OPERATIONAL"
    },
    {
      "place_id": "ChIJ913ewisakJYRmlLMnKXi3G8",
      "name": "SuperBodega aCuenta",
      "address": "Yungay 303, Vicuña",
      "lat": -30.0322934,
      "lon": -70.71211819999999,
      "rating": 4,
      "user_ratings_total": 730,
      "types": [
        "supermarket",
        "grocery_or_supermarket",
        "food",
        "point_of_interest",
        "store",
        "establishment"
      ],
      "business_status": "OPERATIONAL"
    },
    {
      "place_id": "ChIJP8g10MPdiZYRAbyVBQUFTVo",
      "name": "Supermercado Lider",
      "address": "Av. Benidorm 961, Viña del Mar",
      "lat": -33.0067417,
      "lon": -71.54513229999999,
      "rating": 4.2,
      "user_ratings_total": 10588,
      "types": [
        "supermarket",
        "grocery_or_supermarket",
        "food",
        "store",
        "point_of_interest",
        "establishment"
      ],
      "business_status": "OPERATIONAL"
    },
    {
      "place_id": "ChIJfcDkt7rXiZYRU1iEFbagdyo",
      "name": "Supermercado Lider",
      "address": "Manuel Montt 1561, Villa Alemana",
      "lat": -33.0475004,
      "lon": -71.348289,
      "rating": 4.4,
      "user_ratings_total": 6472,
      "types": [
        "supermarket",
        "grocery_or_supermarket",
        "food",
        "store",
        "point_of_interest",
        "establishment"
      ],
      "business_status": "OPERATIONAL"
    },
    {
      "place_id": "ChIJRwhh6QfZiZYRVa_Mvp2RNjc",
      "name": "Lider",
      "address": "Ramón, Freire 1351, Quilpué",
      "lat": -33.0454607,
      "lon": -71.41856829999999,
      "rating": 4.2,
      "user_ratings_total": 9172,
      "types": [
        "supermarket",
        "grocery_or_supermarket",
        "food",
        "store",
        "point_of_interest",
        "establishment"
      ],
      "business_status": "OPERATIONAL"
    },
    {
      "place_id": "ChIJF65OVijhiZYRBvHKSpxh7pg",
      "name": "Express de Lider",
      "address": "Av. Brasil 1303, Valparaíso",
      "lat": -33.043621,
      "lon": -71.6225051,
      "rating": 3.9,
      "user_ratings_total": 6008,
      "types": [
        "supermarket",
        "grocery_or_supermarket",
        "food",
        "store",
        "point_of_interest",
        "establishment"
      ],
      "business_status": "OPERATIONAL"
    },
    {
      "place_id": "ChIJTVyZgMXgiZYRdIbOjH8xhmU",
      "name": "Jumbo",
      "address": "Av. Argentina 51, Valparaíso",
      "lat": -33.044211,
      "lon": -71.60473,
      "rating": 4.3,
      "user_ratings_total": 11740,
      "types": [
        "supermarket",
        "grocery_or_supermarket",
        "food",
        "store",
        "point_of_interest",
        "establishment"
      ],
      "business_status": "OPERATIONAL"
    },
    {
      "place_id": "ChIJC0VduVzfiZYR3sEfJYAgT18",
      "name": "Express de Lider",
      "address": "Av. Valparaíso 1070, Viña del Mar",
      "lat": -33.0260657,
      "lon": -71.54734909999999,
      "rating": 4.2,
      "user_ratings_total": 3830,
      "types": [
        "supermarket",
        "grocery_or_supermarket",
        "food",
        "store",
        "point_of_interest",
        "establishment"
      ],
      "business_status": "OPERATIONAL"
    },
    {
      "place_id": "ChIJzaKXHFXZiZYRfVyPZL4FmDM",
      "name": "Lider Express",
      "address": "Av. Los Carrera 754, Quilpué",
      "lat": -33.0483414,
      "lon": -71.44252689999999,
      "rating": 4.4,
      "user_ratings_total": 282,
      "types": [
        "supermarket",
        "grocery_or_supermarket",
        "food",
        "store",
        "point_of_interest",
        "establishment"
      ],
      "business_status": "OPERATIONAL"
    },
    {
      "place_id": "ChIJ9ZSYwOLdiZYRrCsEhb4Hnkk",
      "name": "Express de Lider Viña del Mar",
      "address": "Av. Valparaíso 176, Viña del Mar",
      "lat": -33.0241284,
      "lon": -71.5602941,
      "rating": 4.1,
      "user_ratings_total": 4108,
      "types": [
        "supermarket",
        "grocery_or_supermarket",
        "food",
        "store",
        "point_of_interest",
        "establishment"
      ],
      "business_status": "OPERATIONAL"
    },
    {
      "place_id": "ChIJK7WV0kh1YpYR9BvYXVZf5e8",
      "name": "Express de Lider",
      "address": "Av. Curauma Nte. 2961, Curauma, Valparaíso",
      "lat": -33.1294543,
      "lon": -71.56319900000001,
      "rating": 4.1,
      "user_ratings_total": 2847,
      "types": [
        "supermarket",
        "grocery_or_supermarket",
        "food",
        "store",
        "point_of_interest",
        "establishment"
      ],
      "business_status": "OPERATIONAL"
    },
    {
      "place_id": "ChIJUSEAStjgiZYRf326UrxN_sU",
      "name": "Express de Lider Pedromontt",
      "address": "Region V of - Las Heras, Valparaíso",
      "lat": -33.0467112,
      "lon": -71.6173258,
      "rating": 4.1,
      "user_ratings_total": 3505,
      "types": [
        "supermarket",
        "grocery_or_supermarket",
        "food",
        "store",
        "point_of_interest",
        "establishment"
      ],
      "business_status": "OPERATIONAL"
    },
    {
      "place_id": "ChIJd5kZDYPXiZYRMnZy157HeQk",
      "name": "Express Villa Alemana I",
      "address": "Av. Valparaíso 601, Valparaíso, Villa Alemana",
      "lat": -33.0442607,
      "lon": -71.372937,
      "rating": 4.1,
      "user_ratings_total": 2830,
      "types": [
        "supermarket",
        "grocery_or_supermarket",
        "food",
        "store",
        "point_of_interest",
        "establishment"
      ],
      "business_status": "OPERATIONAL"
    },
    {
      "place_id": "ChIJtyq2KjTdiZYRAMoWfTEhZ2s",
      "name": "Express de Lider",
      "address": "Las Hiedras 765, Concón",
      "lat": -32.9439958,
      "lon": -71.5457753,
      "rating": 4.2,
      "user_ratings_total": 2709,
      "types": [
        "supermarket",
        "grocery_or_supermarket",
        "food",
        "store",
        "point_of_interest",
        "establishment"
      ],
      "business_status": "OPERATIONAL"
    },
    {
      "place_id": "ChIJ5arX0MjhiZYR37ftbCiCjYQ",
      "name": "Minimarket Concepción",
      "address": "Urriola 411, Valparaíso",
      "lat": -33.0410518,
      "lon": -71.6281623,
      "rating": 4.3,
      "user_ratings_total": 11,
      "types": [
        "supermarket",
        "grocery_or_supermarket",
        "food",
        "store",
        "point_of_interest",
        "establishment"
      ],
      "business_status": "CLOSED_TEMPORARILY"
    },
    {
      "place_id": "ChIJv5fX1UA1aJYR_NyeoIcM-5k",
      "name": "Express de Lider Colón",
      "address": "esq Av. Colón, Morris, Valparaíso",
      "lat": -33.0503852,
      "lon": -71.6091541,
      "rating": 4.2,
      "user_ratings_total": 2146,
      "types": [
        "supermarket",
        "grocery_or_supermarket",
        "food",
        "store",
        "point_of_interest",
        "establishment"
      ],
      "business_status": "OPERATIONAL"
    },
    {
      "place_id": "ChIJizVD8YneiZYR88nX8DpJn9Y",
      "name": "Jumbo",
      "address": "1 Nte. 2901, Viña del Mar",
      "lat": -33.035302,
      "lon": -71.523578,
      "rating": 4.4,
      "user_ratings_total": 13939,
      "types": [
        "supermarket",
        "grocery_or_supermarket",
        "food",
        "store",
        "point_of_interest",
        "establishment"
      ],
      "business_status": "OPERATIONAL"
    },
    {
      "place_id": "ChIJL9zzdubdiZYR8VUbXH7m2ms",
      "name": "Unimarc",
      "address": "4 Pte. 630, Viña del Mar",
      "lat": -33.015667,
      "lon": -71.5543395,
      "rating": 4,
      "user_ratings_total": 2081,
      "types": [
        "supermarket",
        "grocery_or_supermarket",
        "food",
        "store",
        "point_of_interest",
        "establishment"
      ],
      "business_status": "OPERATIONAL"
    },
    {
      "place_id": "ChIJD--vZL3XiZYRZ71-MTG_S4I",
      "name": "Santa Isabel",
      "address": "Bernardo Leigthon 71, Villa Alemana",
      "lat": -33.0471744,
      "lon": -71.3533271,
      "rating": 4.1,
      "user_ratings_total": 2444,
      "types": [
        "supermarket",
        "grocery_or_supermarket",
        "food",
        "store",
        "point_of_interest",
        "establishment"
      ],
      "business_status": "OPERATIONAL"
    },
    {
      "place_id": "ChIJKYmby7rXiZYRwwAtThJzgjQ",
      "name": "Walmart Local 457",
      "address": "Villa Alemana",
      "lat": -33.0475783,
      "lon": -71.3485953,
      "rating": 4.4,
      "user_ratings_total": 101,
      "types": [
        "supermarket",
        "grocery_or_supermarket",
        "food",
        "store",
        "point_of_interest",
        "establishment"
      ],
      "business_status": "OPERATIONAL"
    },
    {
      "place_id": "ChIJdQcjyS7ZiZYRfN_VCwZz2pQ",
      "name": "Express de Lider",
      "address": "Arneb 2520, Villa Alemana",
      "lat": -33.0586284,
      "lon": -71.3956539,
      "rating": 4.3,
      "user_ratings_total": 124,
      "types": [
        "supermarket",
        "grocery_or_supermarket",
        "food",
        "store",
        "point_of_interest",
        "establishment"
      ],
      "business_status": "OPERATIONAL"
    },
    {
      "place_id": "ChIJMyYpLkrhiZYRUrSUhFJMLQk",
      "name": "SuperBodega aCuenta",
      "address": "Luis Guevara Ortuzar 1960, Playa Ancha, Valparaíso",
      "lat": -33.044012,
      "lon": -71.64651549999999,
      "rating": 4,
      "user_ratings_total": 2061,
      "types": [
        "supermarket",
        "grocery_or_supermarket",
        "food",
        "store",
        "point_of_interest",
        "establishment"
      ],
      "business_status": "OPERATIONAL"
    },
    {
      "place_id": "ChIJ78Om7kt1YpYRog28r7c2Zzk",
      "name": "Santa Isabel",
      "address": "Av. Cardenal Samoré 2335, Curauma, Valparaíso",
      "lat": -33.1308082,
      "lon": -71.56544029999999,
      "rating": 4.1,
      "user_ratings_total": 3484,
      "types": [
        "supermarket",
        "grocery_or_supermarket",
        "food",
        "point_of_interest",
        "store",
        "establishment"
      ],
      "business_status": "OPERATIONAL"
    },
    {
      "place_id": "ChIJg9dDsjXdiZYR7K_zzqKryI4",
      "name": "Jumbo",
      "address": "Av. Concón Reñaca 3850, Concón",
      "lat": -32.9392933,
      "lon": -71.5462742,
      "rating": 4.4,
      "user_ratings_total": 7331,
      "types": [
        "supermarket",
        "grocery_or_supermarket",
        "food",
        "point_of_interest",
        "store",
        "establishment"
      ],
      "business_status": "OPERATIONAL"
    },
    {
      "place_id": "ChIJ--WgfwxvYpYRfQ90fS8_mIA",
      "name": "SuperBodega aCuenta",
      "address": "Av. Constitución 793, Casablanca",
      "lat": -33.3114349,
      "lon": -71.40953309999999,
      "rating": 4.1,
      "user_ratings_total": 1010,
      "types": [
        "supermarket",
        "grocery_or_supermarket",
        "food",
        "point_of_interest",
        "store",
        "establishment"
      ],
      "business_status": "OPERATIONAL"
    },
    {
      "place_id": "ChIJ-T1jKbfdiZYRUuUArXkacwI",
      "name": "KOMBI store",
      "address": "7 Nte. 499, Valparaíso, Viña del Mar",
      "lat": -33.0158705,
      "lon": -71.5528917,
      "rating": 4.2,
      "user_ratings_total": 25,
      "types": [
        "supermarket",
        "grocery_or_supermarket",
        "food",
        "point_of_interest",
        "store",
        "establishment"
      ],
      "business_status": "OPERATIONAL"
    },
    {
      "place_id": "ChIJ7cXynizDiZYR-Dtx4P1ubho",
      "name": "Santa Isabel",
      "address": "Av Los Manantiales, Los Manantiales 1021, Concón",
      "lat": -32.9306717,
      "lon": -71.5190645,
      "rating": 4,
      "user_ratings_total": 2524,
      "types": [
        "supermarket",
        "grocery_or_supermarket",
        "food",
        "point_of_interest",
        "store",
        "establishment"
      ],
      "business_status": "OPERATIONAL"
    },
    {
      "place_id": "ChIJmXjUn6vBiZYRvr4V3k0Qo7M",
      "name": "Unimarc",
      "address": "Estrella de Chile 169, Quintero",
      "lat": -32.785383,
      "lon": -71.5270486,
      "rating": 3.8,
      "user_ratings_total": 3472,
      "types": [
        "supermarket",
        "grocery_or_supermarket",
        "food",
        "point_of_interest",
        "store",
        "establishment"
      ],
      "business_status": "OPERATIONAL"
    },
    {
      "place_id": "ChIJL_pi6endiZYRCN6ObAcZ8Ws",
      "name": "Santa Isabel",
      "address": "Av. Libertad 1348, Local 305, Viña del Mar",
      "lat": -33.0085372,
      "lon": -71.54798880000001,
      "rating": 4.1,
      "user_ratings_total": 1266,
      "types": [
        "supermarket",
        "grocery_or_supermarket",
        "food",
        "point_of_interest",
        "store",
        "establishment"
      ],
      "business_status": "OPERATIONAL"
    },
    {
      "place_id": "ChIJrRNoHgTdiZYRCK2j5pgQYlY",
      "name": "Supermercado Tottus Reñaca",
      "address": "Vicuña Mackenna 1050, Viña del Mar",
      "lat": -32.972149,
      "lon": -71.5324942,
      "rating": 4.1,
      "user_ratings_total": 2862,
      "types": [
        "supermarket",
        "grocery_or_supermarket",
        "food",
        "point_of_interest",
        "store",
        "establishment"
      ],
      "business_status": "OPERATIONAL"
    },
    {
      "place_id": "ChIJG8u8SSzeiZYRkppQGuCv-Gk",
      "name": "SuperBodega aCuenta",
      "address": "Av. Juan Pablo II, Rodelillo, Valparaíso",
      "lat": -33.0653263,
      "lon": -71.5640574,
      "rating": 4.1,
      "user_ratings_total": 1509,
      "types": [
        "supermarket",
        "grocery_or_supermarket",
        "food",
        "point_of_interest",
        "store",
        "establishment"
      ],
      "business_status": "OPERATIONAL"
    },
    {
      "place_id": "ChIJA7eqZKzZiZYREfObznRaM_Q",
      "name": "Jumbo",
      "address": "Av. Ramón Freire 1851, Quilpué",
      "lat": -33.045357,
      "lon": -71.422736,
      "rating": 4.4,
      "user_ratings_total": 7066,
      "types": [
        "supermarket",
        "grocery_or_supermarket",
        "food",
        "point_of_interest",
        "store",
        "establishment"
      ],
      "business_status": "OPERATIONAL"
    },
    {
      "place_id": "ChIJcWmoMtvgiZYR2ljRFc_f_Io",
      "name": "Santa Isabel",
      "address": "Uruguay 350, Valparaíso",
      "lat": -33.0467389,
      "lon": -71.6082385,
      "rating": 3.8,
      "user_ratings_total": 2200,
      "types": [
        "supermarket",
        "grocery_or_supermarket",
        "food",
        "point_of_interest",
        "store",
        "establishment"
      ],
      "business_status": "OPERATIONAL"
    },
    {
      "place_id": "ChIJHZbBLd_ZiZYRBEeMnBijsYY",
      "name": "Central Mayorista",
      "address": "Freire 1351, Quilpué",
      "lat": -33.0469659,
      "lon": -71.418753,
      "rating": 4.3,
      "user_ratings_total": 486,
      "types": [
        "supermarket",
        "grocery_or_supermarket",
        "food",
        "point_of_interest",
        "store",
        "establishment"
      ],
      "business_status": "OPERATIONAL"
    },
    {
      "place_id": "ChIJmytp1yDYiZYR5KcYib1sT0I",
      "name": "SuperBodega aCuenta",
      "address": "Pje. Huanhuali 1496, Villa Alemana",
      "lat": -33.0584499,
      "lon": -71.38613289999999,
      "rating": 4.2,
      "user_ratings_total": 2944,
      "types": [
        "supermarket",
        "grocery_or_supermarket",
        "food",
        "point_of_interest",
        "store",
        "establishment"
      ],
      "business_status": "OPERATIONAL"
    },
    {
      "place_id": "ChIJ2y1QIzXYiZYRIfanrLzNnHg",
      "name": "Santa Isabel",
      "address": "Freire 496, Quilpué",
      "lat": -33.046062,
      "lon": -71.4039133,
      "rating": 4.1,
      "user_ratings_total": 2147,
      "types": [
        "supermarket",
        "grocery_or_supermarket",
        "food",
        "point_of_interest",
        "store",
        "establishment"
      ],
      "business_status": "OPERATIONAL"
    },
    {
      "place_id": "ChIJweMYha3ZiZYRZ4ZOXx2HhPg",
      "name": "Super 10",
      "address": "Baden Powell 36, Quilpué",
      "lat": -33.0439791,
      "lon": -71.41827440000002,
      "rating": 4.1,
      "user_ratings_total": 1947,
      "types": [
        "supermarket",
        "grocery_or_supermarket",
        "food",
        "point_of_interest",
        "store",
        "establishment"
      ],
      "business_status": "OPERATIONAL"
    },
    {
      "place_id": "ChIJjUeTP4PXiZYRmGWBBv7X73I",
      "name": "Santa Isabel",
      "address": "Av. Valparaíso 569, Villa Alemana",
      "lat": -33.0445087,
      "lon": -71.3724579,
      "rating": 4.1,
      "user_ratings_total": 3625,
      "types": [
        "supermarket",
        "grocery_or_supermarket",
        "food",
        "point_of_interest",
        "store",
        "establishment"
      ],
      "business_status": "OPERATIONAL"
    },
    {
      "place_id": "ChIJBXm249fgiZYRIIExxSzG6ZQ",
      "name": "Santa Isabel",
      "address": "Av. Brasil 1601, Valparaíso",
      "lat": -33.0445396,
      "lon": -71.6197282,
      "rating": 4.1,
      "user_ratings_total": 2370,
      "types": [
        "supermarket",
        "grocery_or_supermarket",
        "food",
        "point_of_interest",
        "store",
        "establishment"
      ],
      "business_status": "OPERATIONAL"
    },
    {
      "place_id": "ChIJqRpWhK3ZiZYRp8FTM2KoBJY",
      "name": "Alvi",
      "address": "Freire 1515, Quilpué",
      "lat": -33.0444424,
      "lon": -71.4174567,
      "rating": 4.2,
      "user_ratings_total": 1159,
      "types": [
        "grocery_or_supermarket",
        "supermarket",
        "food",
        "point_of_interest",
        "store",
        "establishment"
      ],
      "business_status": "OPERATIONAL"
    },
    {
      "place_id": "ChIJHbt-vuLdiZYRKdBx4BhpAGE",
      "name": "Santa Isabel",
      "address": "Local - Villanelo 236, Viña del Mar",
      "lat": -33.0246878,
      "lon": -71.55722329999999,
      "rating": 3.9,
      "user_ratings_total": 3751,
      "types": [
        "supermarket",
        "grocery_or_supermarket",
        "food",
        "point_of_interest",
        "store",
        "establishment"
      ],
      "business_status": "OPERATIONAL"
    },
    {
      "place_id": "ChIJx21qI9vgiZYRv1IS9Up-8gw",
      "name": "Super 10",
      "address": "Pedro Montt 2585, Valparaíso",
      "lat": -33.0472444,
      "lon": -71.6092042,
      "rating": 4,
      "user_ratings_total": 1633,
      "types": [
        "supermarket",
        "grocery_or_supermarket",
        "food",
        "point_of_interest",
        "store",
        "establishment"
      ],
      "business_status": "OPERATIONAL"
    },
    {
      "place_id": "ChIJz-qZBFzfiZYRmH26nvrIHP8",
      "name": "Sbcomercializadora",
      "address": "Viana 811, Local 1, Viña del Mar",
      "lat": -33.0261122,
      "lon": -71.5503624,
      "rating": 5,
      "user_ratings_total": 1,
      "types": [
        "supermarket",
        "grocery_or_supermarket",
        "food",
        "store",
        "point_of_interest",
        "establishment"
      ],
      "business_status": "OPERATIONAL"
    },
    {
      "place_id": "ChIJVX6qGebdiZYRWXZd3GwFkZ8",
      "name": "Santa Isabel",
      "address": "1 Pte 811, Viña del Mar",
      "lat": -33.0136317,
      "lon": -71.5513285,
      "rating": 4.1,
      "user_ratings_total": 2486,
      "types": [
        "supermarket",
        "grocery_or_supermarket",
        "food",
        "store",
        "point_of_interest",
        "establishment"
      ],
      "business_status": "OPERATIONAL"
    },
    {
      "place_id": "ChIJJ3-FkebdiZYRRftZ7IXaofY",
      "name": "SuperBodega aCuenta",
      "address": "Calle Estero Maitenlahue, Reñaca 925, Viña del Mar",
      "lat": -32.9957936,
      "lon": -71.5002257,
      "rating": 4.2,
      "user_ratings_total": 497,
      "types": [
        "supermarket",
        "grocery_or_supermarket",
        "food",
        "store",
        "point_of_interest",
        "establishment"
      ],
      "business_status": "OPERATIONAL"
    },
    {
      "place_id": "ChIJucsSXZHgiZYR_H2XLwu5188",
      "name": "Santa Isabel",
      "address": "Jorge Kenrick 35, Valparaíso",
      "lat": -33.0591735,
      "lon": -71.586975,
      "rating": 4.2,
      "user_ratings_total": 1919,
      "types": [
        "supermarket",
        "grocery_or_supermarket",
        "food",
        "store",
        "point_of_interest",
        "establishment"
      ],
      "business_status": "OPERATIONAL"
    },
    {
      "place_id": "ChIJ7xmvklfAiZYRO6qDF6vaSGQ",
      "name": "Unimarc",
      "address": "Av. Normandie 2680, Quintero",
      "lat": -32.7923382,
      "lon": -71.52718759999999,
      "rating": 3.9,
      "user_ratings_total": 377,
      "types": [
        "supermarket",
        "grocery_or_supermarket",
        "food",
        "store",
        "point_of_interest",
        "establishment"
      ],
      "business_status": "OPERATIONAL"
    },
    {
      "place_id": "ChIJySsOleDdiZYRWvh3GoBWvyY",
      "name": "Unimarc",
      "address": "Etchevers 594, Viña del Mar",
      "lat": -33.0287191,
      "lon": -71.5570631,
      "rating": 3.9,
      "user_ratings_total": 1442,
      "types": [
        "supermarket",
        "grocery_or_supermarket",
        "food",
        "store",
        "point_of_interest",
        "establishment"
      ],
      "business_status": "OPERATIONAL"
    },
    {
      "place_id": "ChIJebQDISTYiZYRdJO74a7HqnU",
      "name": "Santa Isabel",
      "address": "C. Alcalde Rodolfo Galleguillos 1099, Villa Alemana",
      "lat": -33.057375,
      "lon": -71.388623,
      "rating": 4.2,
      "user_ratings_total": 1510,
      "types": [
        "supermarket",
        "grocery_or_supermarket",
        "food",
        "store",
        "point_of_interest",
        "establishment"
      ],
      "business_status": "OPERATIONAL"
    },
    {
      "place_id": "ChIJ-07pNTDXiZYRF6GyU2tV64k",
      "name": "Unimarc",
      "address": "Av. Valparaíso 899, Villa Alemana",
      "lat": -33.0444417,
      "lon": -71.3765683,
      "rating": 4,
      "user_ratings_total": 2975,
      "types": [
        "supermarket",
        "grocery_or_supermarket",
        "food",
        "store",
        "point_of_interest",
        "establishment"
      ],
      "business_status": "OPERATIONAL"
    },
    {
      "place_id": "ChIJFdvq6-fdiZYR15jdhl7s0Pk",
      "name": "OK Market",
      "address": "Av. Libertad 800, Viña del Mar",
      "lat": -33.0141345,
      "lon": -71.5494702,
      "rating": 4.1,
      "user_ratings_total": 968,
      "types": [
        "supermarket",
        "grocery_or_supermarket",
        "food",
        "store",
        "point_of_interest",
        "establishment"
      ],
      "business_status": "OPERATIONAL"
    },
    {
      "place_id": "ChIJmwNEjCzDiZYRaT007Dxtf54",
      "name": "Supermercado Tottus Concón",
      "address": "Los Manantiales 955, Concón",
      "lat": -32.92984620000001,
      "lon": -71.5177432,
      "rating": 4.1,
      "user_ratings_total": 3085,
      "types": [
        "supermarket",
        "grocery_or_supermarket",
        "food",
        "store",
        "point_of_interest",
        "establishment"
      ],
      "business_status": "OPERATIONAL"
    },
    {
      "place_id": "ChIJvWvuQ4PXiZYRuFcV1K718_Q",
      "name": "Super 10",
      "address": "Av. Valparaíso 517, Villa Alemana",
      "lat": -33.0445556,
      "lon": -71.3716857,
      "rating": 4.1,
      "user_ratings_total": 858,
      "types": [
        "supermarket",
        "grocery_or_supermarket",
        "food",
        "store",
        "point_of_interest",
        "establishment"
      ],
      "business_status": "OPERATIONAL"
    },
    {
      "place_id": "ChIJyS-CYKsKYpYROHbwgGYx0r0",
      "name": "Unimarc",
      "address": "Av. Obispo Valdés Subercaseaux 1170, Local 7, Curauma, Valparaíso",
      "lat": -33.1188388,
      "lon": -71.5715163,
      "rating": 3.9,
      "user_ratings_total": 1828,
      "types": [
        "supermarket",
        "grocery_or_supermarket",
        "food",
        "store",
        "point_of_interest",
        "establishment"
      ],
      "business_status": "OPERATIONAL"
    },
    {
      "place_id": "ChIJBajbqwreiZYRnkkN7kDaubo",
      "name": "Provimarket",
      "address": "Quillota 28, Viña del Mar",
      "lat": -33.0241334,
      "lon": -71.5489597,
      "rating": 4.3,
      "user_ratings_total": 783,
      "types": [
        "supermarket",
        "grocery_or_supermarket",
        "food",
        "store",
        "point_of_interest",
        "establishment"
      ],
      "business_status": "OPERATIONAL"
    },
    {
      "place_id": "ChIJY4R0ZzPYiZYRxVqokc2oY5g",
      "name": "Supermercado Tottus Quilpué",
      "address": "Freire 120, Quilpué, Villa Alemana",
      "lat": -33.0449749,
      "lon": -71.4000647,
      "rating": 4.1,
      "user_ratings_total": 3658,
      "types": [
        "supermarket",
        "grocery_or_supermarket",
        "food",
        "store",
        "point_of_interest",
        "establishment"
      ],
      "business_status": "OPERATIONAL"
    },
    {
      "place_id": "ChIJ6TjGa5l1YpYRR_dYSw9WcGg",
      "name": "Supermercado Tottus Curauma",
      "address": "Av. Cardenal Samoré 2290, Curauma, Valparaíso",
      "lat": -33.1318757,
      "lon": -71.5658648,
      "rating": 4.2,
      "user_ratings_total": 1883,
      "types": [
        "supermarket",
        "grocery_or_supermarket",
        "food",
        "store",
        "point_of_interest",
        "establishment"
      ],
      "business_status": "OPERATIONAL"
    },
    {
      "place_id": "ChIJzVacxNrgiZYRgp5TTtLrW2Y",
      "name": "Alvi",
      "address": "Morris N°215, Valparaíso",
      "lat": -33.0456406,
      "lon": -71.6088444,
      "rating": 4,
      "user_ratings_total": 1234,
      "types": [
        "grocery_or_supermarket",
        "supermarket",
        "food",
        "store",
        "point_of_interest",
        "establishment"
      ],
      "business_status": "OPERATIONAL"
    },
    {
      "place_id": "ChIJXxa_SrbNiZYRiOqI3PhIf2Q",
      "name": "Supermercado Lider",
      "address": "Av. 21 de Mayo 311, Quillota",
      "lat": -32.8742429,
      "lon": -71.2416499,
      "rating": 4.2,
      "user_ratings_total": 4736,
      "types": [
        "supermarket",
        "grocery_or_supermarket",
        "point_of_interest",
        "store",
        "food",
        "establishment"
      ],
      "business_status": "OPERATIONAL"
    },
    {
      "place_id": "ChIJZ7qnimnViZYRVV9qXDoAH0A",
      "name": "Supermercado Lider",
      "address": "Arturo Prat 244, Limache",
      "lat": -32.9852508,
      "lon": -71.2780755,
      "rating": 4.4,
      "user_ratings_total": 542,
      "types": [
        "supermarket",
        "grocery_or_supermarket",
        "point_of_interest",
        "store",
        "food",
        "establishment"
      ],
      "business_status": "OPERATIONAL"
    },
    {
      "place_id": "ChIJTZBs443NiZYRlbMh2btNQvE",
      "name": "Express de Lider",
      "address": "Valparaíso 370, Quillota",
      "lat": -32.8807921,
      "lon": -71.2572754,
      "rating": 4.2,
      "user_ratings_total": 547,
      "types": [
        "supermarket",
        "grocery_or_supermarket",
        "point_of_interest",
        "store",
        "food",
        "establishment"
      ],
      "business_status": "OPERATIONAL"
    },
    {
      "place_id": "ChIJ-2quaQDViZYRxI9QnodH7to",
      "name": "Super 10",
      "address": "Arturo Prat 200, Limache",
      "lat": -32.9843688,
      "lon": -71.27698079999999,
      "rating": 2.6,
      "user_ratings_total": 18,
      "types": [
        "supermarket",
        "grocery_or_supermarket",
        "point_of_interest",
        "store",
        "food",
        "establishment"
      ],
      "business_status": "OPERATIONAL"
    },
    {
      "place_id": "ChIJSUL-Hj7UiZYRM-ep3OswIuY",
      "name": "Santa Isabel",
      "address": "Palmira Romano Nte. 405, Limache",
      "lat": -32.987415,
      "lon": -71.271642,
      "rating": 4.2,
      "user_ratings_total": 3504,
      "types": [
        "supermarket",
        "grocery_or_supermarket",
        "food",
        "point_of_interest",
        "store",
        "establishment"
      ],
      "business_status": "OPERATIONAL"
    },
    {
      "place_id": "ChIJt1_TvoPNiZYR_nhYwngWPeE",
      "name": "SuperBodega aCuenta",
      "address": "Diego Echeverría 85, Valparaiso, Quillota",
      "lat": -32.8835531,
      "lon": -71.24198439999999,
      "rating": 4.2,
      "user_ratings_total": 1732,
      "types": [
        "supermarket",
        "grocery_or_supermarket",
        "food",
        "point_of_interest",
        "store",
        "establishment"
      ],
      "business_status": "OPERATIONAL"
    },
    {
      "place_id": "ChIJX-9GKHfNiZYRIrzTeMON58U",
      "name": "Jumbo",
      "address": "Rafael Ariztía 587, Quillota",
      "lat": -32.8761369,
      "lon": -71.2345279,
      "rating": 4.5,
      "user_ratings_total": 510,
      "types": [
        "supermarket",
        "grocery_or_supermarket",
        "food",
        "point_of_interest",
        "store",
        "establishment"
      ],
      "business_status": "OPERATIONAL"
    },
    {
      "place_id": "ChIJI_vo2T_UiZYRzwH511z6QuY",
      "name": "SuperBodega aCuenta",
      "address": "Av. República N° 219, Limache",
      "lat": -33.0027133,
      "lon": -71.266195,
      "rating": 4.1,
      "user_ratings_total": 1476,
      "types": [
        "supermarket",
        "grocery_or_supermarket",
        "food",
        "store",
        "point_of_interest",
        "establishment"
      ],
      "business_status": "OPERATIONAL"
    },
    {
      "place_id": "ChIJ9TIycUTUiZYR7dJLZdZZCCE",
      "name": "Provimarket",
      "address": "Av. República 1204, Limache",
      "lat": -33.0065898,
      "lon": -71.25578,
      "rating": 4.3,
      "user_ratings_total": 1359,
      "types": [
        "supermarket",
        "grocery_or_supermarket",
        "food",
        "store",
        "point_of_interest",
        "establishment"
      ],
      "business_status": "OPERATIONAL"
    },
    {
      "place_id": "ChIJB04y9ZzNiZYRNM_Ft47lVcU",
      "name": "Santa Isabel",
      "address": "Prat 95, Quillota",
      "lat": -32.8767205,
      "lon": -71.2439016,
      "rating": 4.1,
      "user_ratings_total": 1070,
      "types": [
        "supermarket",
        "grocery_or_supermarket",
        "food",
        "store",
        "point_of_interest",
        "establishment"
      ],
      "business_status": "OPERATIONAL"
    },
    {
      "place_id": "ChIJbUEiGHzSiZYRemu06Pwf68Q",
      "name": "Supermercado Tottus Quillota Las Palmas",
      "address": "Av. Carlos Condell 1687, local A3, Quillota",
      "lat": -32.8969416,
      "lon": -71.2439365,
      "rating": 4.2,
      "user_ratings_total": 3281,
      "types": [
        "supermarket",
        "grocery_or_supermarket",
        "food",
        "store",
        "point_of_interest",
        "establishment"
      ],
      "business_status": "OPERATIONAL"
    },
    {
      "place_id": "ChIJuRzW0RrNiZYRvnF6R-Qm6K4",
      "name": "Hiper Lider La Calera",
      "address": "Lautaro 78, La Calera, Calera",
      "lat": -32.7977052,
      "lon": -71.20447469999999,
      "rating": 4.4,
      "user_ratings_total": 270,
      "types": [
        "supermarket",
        "grocery_or_supermarket",
        "food",
        "store",
        "point_of_interest",
        "establishment"
      ],
      "business_status": "OPERATIONAL"
    },
    {
      "place_id": "ChIJeSs_tlPLiZYR26x4E5NXC4E",
      "name": "Express Líder La Calera",
      "address": "Carrera 1195, La Calera, Calera",
      "lat": -32.7877086,
      "lon": -71.1977426,
      "rating": 4.1,
      "user_ratings_total": 1658,
      "types": [
        "supermarket",
        "grocery_or_supermarket",
        "food",
        "store",
        "point_of_interest",
        "establishment"
      ],
      "business_status": "OPERATIONAL"
    },
    {
      "place_id": "ChIJCRj_5zMriJYRGJP1cn5laGA",
      "name": "Unimarc",
      "address": "C. Diego Portales 2090, Olmué",
      "lat": -32.9962607,
      "lon": -71.18648379999999,
      "rating": 4,
      "user_ratings_total": 1304,
      "types": [
        "supermarket",
        "grocery_or_supermarket",
        "food",
        "store",
        "point_of_interest",
        "establishment"
      ],
      "business_status": "OPERATIONAL"
    },
    {
      "place_id": "ChIJ4SLbRKw0iJYRzch-a1MPKNA",
      "name": "Santa Isabel",
      "address": "Zenteno 232, al 242, La Calera, Calera",
      "lat": -32.787454,
      "lon": -71.188515,
      "rating": 4,
      "user_ratings_total": 1446,
      "types": [
        "supermarket",
        "grocery_or_supermarket",
        "food",
        "point_of_interest",
        "store",
        "establishment"
      ],
      "business_status": "OPERATIONAL"
    },
    {
      "place_id": "ChIJNYgrx97giZYRLNAkQkJByJM",
      "name": "Superbodega aCuenta",
      "address": "Almte. Latorre 280, La Calera, Calera",
      "lat": -32.78951860000001,
      "lon": -71.1855142,
      "rating": 4.1,
      "user_ratings_total": 1208,
      "types": [
        "supermarket",
        "grocery_or_supermarket",
        "food",
        "point_of_interest",
        "store",
        "establishment"
      ],
      "business_status": "OPERATIONAL"
    },
    {
      "place_id": "ChIJ5YcbSas0iJYR9-7sv2f3Mok",
      "name": "Supermercado Tottus La Calera",
      "address": "J. J. Pérez 12010, La Calera, Calera",
      "lat": -32.7911586,
      "lon": -71.19179319999999,
      "rating": 4.1,
      "user_ratings_total": 2542,
      "types": [
        "supermarket",
        "grocery_or_supermarket",
        "food",
        "point_of_interest",
        "store",
        "establishment"
      ],
      "business_status": "OPERATIONAL"
    },
    {
      "place_id": "ChIJA_OZkQfNiZYRdrzet5lAwrk",
      "name": "Unimarc",
      "address": "O'Higgins 34, Quillota",
      "lat": -32.877548,
      "lon": -71.247103,
      "rating": 4,
      "user_ratings_total": 886,
      "types": [
        "supermarket",
        "grocery_or_supermarket",
        "food",
        "point_of_interest",
        "store",
        "establishment"
      ],
      "business_status": "OPERATIONAL"
    },
    {
      "place_id": "ChIJ9wY1PGq4iZYRRSGDBCLm19E",
      "name": "Unimarc",
      "address": "Av. Pdte. Ríos 672, Puchuncaví",
      "lat": -32.7214438,
      "lon": -71.4104753,
      "rating": 3.9,
      "user_ratings_total": 1634,
      "types": [
        "supermarket",
        "grocery_or_supermarket",
        "food",
        "point_of_interest",
        "store",
        "establishment"
      ],
      "business_status": "OPERATIONAL"
    },
    {
      "place_id": "ChIJ1VLX2g_ViZYRQ5B7G7AX-Y8",
      "name": "Unimarc",
      "address": "Av. República 342, Limache",
      "lat": -33.0020288,
      "lon": -71.2643914,
      "rating": 4.3,
      "user_ratings_total": 725,
      "types": [
        "supermarket",
        "grocery_or_supermarket",
        "food",
        "point_of_interest",
        "store",
        "establishment"
      ],
      "business_status": "OPERATIONAL"
    },
    {
      "place_id": "ChIJ-cJj9FE4YpYRTWtn-2nol3Q",
      "name": "Hipermercado Líder San Antonio",
      "address": "Barros Luco, San Antonio",
      "lat": -33.6074126,
      "lon": -71.6134297,
      "rating": 4.1,
      "user_ratings_total": 5343,
      "types": [
        "supermarket",
        "grocery_or_supermarket",
        "food",
        "point_of_interest",
        "store",
        "establishment"
      ],
      "business_status": "OPERATIONAL"
    },
    {
      "place_id": "ChIJo0bD7vs4YpYRU7U7i3zwi7k",
      "name": "Supermercado Tottus San Antonio",
      "address": "Barros Luco 1399, San Antonio",
      "lat": -33.5911357,
      "lon": -71.6133692,
      "rating": 4,
      "user_ratings_total": 3838,
      "types": [
        "supermarket",
        "grocery_or_supermarket",
        "food",
        "point_of_interest",
        "store",
        "establishment"
      ],
      "business_status": "OPERATIONAL"
    },
    {
      "place_id": "ChIJv2vgI1g5YpYRtJ9PBwvKryU",
      "name": "Supermercado",
      "address": "Cartagena",
      "lat": -33.5518338,
      "lon": -71.5834544,
      "rating": 5,
      "user_ratings_total": 2,
      "types": [
        "supermarket",
        "grocery_or_supermarket",
        "food",
        "point_of_interest",
        "store",
        "establishment"
      ],
      "business_status": "OPERATIONAL"
    },
    {
      "place_id": "ChIJDx_1QOAVYpYRDOPWXrQtQIk",
      "name": "Unimarc - EL TABO",
      "address": "Av. San Marcos 1027, El Tabo",
      "lat": -33.4556101,
      "lon": -71.6655798,
      "rating": 3.7,
      "user_ratings_total": 5049,
      "types": [
        "supermarket",
        "grocery_or_supermarket",
        "food",
        "point_of_interest",
        "store",
        "establishment"
      ],
      "business_status": "OPERATIONAL"
    },
    {
      "place_id": "ChIJz6KLTBRvYpYRFg17HqfjUkw",
      "name": "Santa Isabel",
      "address": "Mall Arauco - Barros Luco 105, San Antonio",
      "lat": -33.5821625,
      "lon": -71.6134589,
      "rating": 4,
      "user_ratings_total": 1639,
      "types": [
        "supermarket",
        "grocery_or_supermarket",
        "food",
        "point_of_interest",
        "store",
        "establishment"
      ],
      "business_status": "OPERATIONAL"
    },
    {
      "place_id": "ChIJNU66rfs4YpYRMjG1TyuNLNI",
      "name": "SuperBodega aCuenta",
      "address": "Veintiuno de Mayo 950, San Antonio",
      "lat": -33.5889925,
      "lon": -71.6112608,
      "rating": 3.9,
      "user_ratings_total": 1569,
      "types": [
        "supermarket",
        "grocery_or_supermarket",
        "food",
        "point_of_interest",
        "store",
        "establishment"
      ],
      "business_status": "OPERATIONAL"
    },
    {
      "place_id": "ChIJaaawXzE_YpYR4occBGYIgqc",
      "name": "Unimarc - CARTAGENA",
      "address": "Mariano Casanova 306, Cartagena",
      "lat": -33.5471929,
      "lon": -71.6032536,
      "rating": 3.9,
      "user_ratings_total": 1228,
      "types": [
        "supermarket",
        "grocery_or_supermarket",
        "food",
        "point_of_interest",
        "store",
        "establishment"
      ],
      "business_status": "OPERATIONAL"
    },
    {
      "place_id": "ChIJfSuSceY4YpYRknp11soYRC0",
      "name": "Supermercados Carrera",
      "address": "Centenario 218, San Antonio",
      "lat": -33.5800048,
      "lon": -71.610083,
      "rating": 4.4,
      "user_ratings_total": 532,
      "types": [
        "supermarket",
        "grocery_or_supermarket",
        "food",
        "point_of_interest",
        "store",
        "establishment"
      ],
      "business_status": "OPERATIONAL"
    },
    {
      "place_id": "ChIJfSdpMtkEiJYR33cXDKejY6A",
      "name": "Supermercado Lider",
      "address": "Av. Santa Teresa 683, Los Andes",
      "lat": -32.8347689,
      "lon": -70.6060798,
      "rating": 4.2,
      "user_ratings_total": 2805,
      "types": [
        "supermarket",
        "grocery_or_supermarket",
        "point_of_interest",
        "store",
        "food",
        "establishment"
      ],
      "business_status": "OPERATIONAL"
    },
    {
      "place_id": "ChIJgTDr-eIXiJYR2NrXiQ0LKiQ",
      "name": "Líder San Felipe",
      "address": "Av. Libertador Bernardo O'Higgins 740, San Felipe",
      "lat": -32.7548792,
      "lon": -70.72834929999999,
      "rating": 4.5,
      "user_ratings_total": 416,
      "types": [
        "supermarket",
        "grocery_or_supermarket",
        "point_of_interest",
        "store",
        "food",
        "establishment"
      ],
      "business_status": "OPERATIONAL"
    },
    {
      "place_id": "ChIJ03S1Vi4RiJYRpVEv3wpqeYk",
      "name": "Express de Lider",
      "address": "Tocornal 2450, San Felipe",
      "lat": -32.75375,
      "lon": -70.7081879,
      "rating": 4.2,
      "user_ratings_total": 1974,
      "types": [
        "supermarket",
        "grocery_or_supermarket",
        "point_of_interest",
        "store",
        "food",
        "establishment"
      ],
      "business_status": "OPERATIONAL"
    },
    {
      "place_id": "ChIJ45uw8t8EiJYRmi_IxwDh6y0",
      "name": "Express de Lider",
      "address": "Papudo 261, Los Andes",
      "lat": -32.8322783,
      "lon": -70.5997278,
      "rating": 4,
      "user_ratings_total": 1621,
      "types": [
        "supermarket",
        "grocery_or_supermarket",
        "point_of_interest",
        "store",
        "food",
        "establishment"
      ],
      "business_status": "OPERATIONAL"
    },
    {
      "place_id": "ChIJHTpoacYWiJYRYInGfQJlomQ",
      "name": "SuperBodega aCuenta",
      "address": "Maipú 1121, San Felipe",
      "lat": -32.7481099,
      "lon": -70.72949,
      "rating": 3.8,
      "user_ratings_total": 1478,
      "types": [
        "supermarket",
        "grocery_or_supermarket",
        "point_of_interest",
        "store",
        "food",
        "establishment"
      ],
      "business_status": "OPERATIONAL"
    },
    {
      "place_id": "ChIJ3TRTxOgEiJYRJzuwBNvsMBA",
      "name": "SuperBodega aCuenta",
      "address": "Av. Pascual Baburizza 716, Los Andes",
      "lat": -32.8485686,
      "lon": -70.5917576,
      "rating": 4,
      "user_ratings_total": 1443,
      "types": [
        "supermarket",
        "grocery_or_supermarket",
        "point_of_interest",
        "store",
        "food",
        "establishment"
      ],
      "business_status": "OPERATIONAL"
    },
    {
      "place_id": "ChIJpcFR4MwWiJYRStm8hfYVCxw",
      "name": "Santa Isabel",
      "address": "Yungay 1150, San Felipe",
      "lat": -32.751719,
      "lon": -70.72125199999999,
      "rating": 4,
      "user_ratings_total": 1869,
      "types": [
        "supermarket",
        "grocery_or_supermarket",
        "point_of_interest",
        "store",
        "food",
        "establishment"
      ],
      "business_status": "OPERATIONAL"
    },
    {
      "place_id": "ChIJo5NpKtIWiJYRjvrmXzkhCVs",
      "name": "Supermercado Tottus San Felipe",
      "address": "Av. Libertador Bernardo O'Higgins N° 1150, San Felipe",
      "lat": -32.7565369,
      "lon": -70.7230016,
      "rating": 4,
      "user_ratings_total": 3294,
      "types": [
        "supermarket",
        "grocery_or_supermarket",
        "point_of_interest",
        "store",
        "food",
        "establishment"
      ],
      "business_status": "OPERATIONAL"
    },
    {
      "place_id": "ChIJcX-0TooFiJYRWpUKKYS4BzM",
      "name": "Unimarc",
      "address": "Yerbas Buenas 460, Los Andes",
      "lat": -32.834208,
      "lon": -70.6015784,
      "rating": 4,
      "user_ratings_total": 1024,
      "types": [
        "supermarket",
        "grocery_or_supermarket",
        "point_of_interest",
        "store",
        "food",
        "establishment"
      ],
      "business_status": "OPERATIONAL"
    },
    {
      "place_id": "ChIJqSl3vBRvYpYR3Dxd3YFd92U",
      "name": "Santa Isabel",
      "address": "Av. Diego Portales 519, Casablanca",
      "lat": -33.322552,
      "lon": -71.404961,
      "rating": 4.1,
      "user_ratings_total": 1278,
      "types": [
        "supermarket",
        "grocery_or_supermarket",
        "store",
        "food",
        "point_of_interest",
        "establishment"
      ],
      "business_status": "OPERATIONAL"
    },
    {
      "place_id": "ChIJPelITRJvYpYRywjwRADp0SE",
      "name": "Unimarc",
      "address": "Av. Constitución 120, Casablanca",
      "lat": -33.3197624,
      "lon": -71.40976359999999,
      "rating": 3.8,
      "user_ratings_total": 716,
      "types": [
        "supermarket",
        "grocery_or_supermarket",
        "store",
        "food",
        "point_of_interest",
        "establishment"
      ],
      "business_status": "OPERATIONAL"
    },
    {
      "place_id": "ChIJz9xvWfXEYpYRZjrCjzQkZn0",
      "name": "Supermercado Lider",
      "address": "Av. Padre Alberto Hurtado 060, Estación Central",
      "lat": -33.452364,
      "lon": -70.6921745,
      "rating": 4,
      "user_ratings_total": 26355,
      "types": [
        "supermarket",
        "grocery_or_supermarket",
        "store",
        "point_of_interest",
        "food",
        "establishment"
      ],
      "business_status": "OPERATIONAL"
    },
    {
      "place_id": "ChIJr49I0pXPYpYRVBLFqbXZ8ok",
      "name": "Supermercado Lider",
      "address": "Av. Irarrázaval 2928, Ñuñoa",
      "lat": -33.4530562,
      "lon": -70.60078980000002,
      "rating": 4,
      "user_ratings_total": 16079,
      "types": [
        "supermarket",
        "grocery_or_supermarket",
        "store",
        "point_of_interest",
        "food",
        "establishment"
      ],
      "business_status": "OPERATIONAL"
    },
    {
      "place_id": "ChIJt0p0TFvQYpYR0m6FXGdOIFk",
      "name": "Supermercado Lider",
      "address": "Av. Américo Vespucio 6325, La Florida",
      "lat": -33.511853,
      "lon": -70.5917242,
      "rating": 4.1,
      "user_ratings_total": 10229,
      "types": [
        "supermarket",
        "grocery_or_supermarket",
        "store",
        "point_of_interest",
        "food",
        "establishment"
      ],
      "business_status": "OPERATIONAL"
    },
    {
      "place_id": "ChIJxQtHP5fRYpYRMTMnvq147n8",
      "name": "Supermercado Lider",
      "address": "Av - Sta. Amalia 1763, La Florida",
      "lat": -33.5450889,
      "lon": -70.5704353,
      "rating": 4.2,
      "user_ratings_total": 16081,
      "types": [
        "supermarket",
        "grocery_or_supermarket",
        "store",
        "point_of_interest",
        "food",
        "establishment"
      ],
      "business_status": "OPERATIONAL"
    },
    {
      "place_id": "ChIJr4yJkPndYpYRiICXjJK0HyU",
      "name": "Supermercado Lider",
      "address": "Av. Los Pajaritos 2689, Maipú",
      "lat": -33.5025278,
      "lon": -70.7564325,
      "rating": 4.1,
      "user_ratings_total": 10824,
      "types": [
        "supermarket",
        "grocery_or_supermarket",
        "store",
        "point_of_interest",
        "food",
        "establishment"
      ],
      "business_status": "OPERATIONAL"
    },
    {
      "place_id": "ChIJwXt4dQPDYpYRIbyTPu7BIlk",
      "name": "Supermercado Lider",
      "address": "Av. Américo Vespucio 1955, Maipú",
      "lat": -33.4719132,
      "lon": -70.75823729999999,
      "rating": 4.1,
      "user_ratings_total": 7438,
      "types": [
        "supermarket",
        "grocery_or_supermarket",
        "store",
        "point_of_interest",
        "food",
        "establishment"
      ],
      "business_status": "OPERATIONAL"
    },
    {
      "place_id": "ChIJHyTgA-rPYpYRHoOit9WD3l4",
      "name": "Supermercado Lider",
      "address": "Av. José Pedro Alessandri 2127, Macul",
      "lat": -33.4744462,
      "lon": -70.5996016,
      "rating": 4,
      "user_ratings_total": 11873,
      "types": [
        "supermarket",
        "grocery_or_supermarket",
        "store",
        "point_of_interest",
        "food",
        "establishment"
      ],
      "business_status": "OPERATIONAL"
    },
    {
      "place_id": "ChIJXT6h7c7WYpYR9gPa5GZS8o8",
      "name": "Supermercado Lider",
      "address": "Los Toros 05441, Puente Alto",
      "lat": -33.5670618,
      "lon": -70.5579972,
      "rating": 4.1,
      "user_ratings_total": 10329,
      "types": [
        "supermarket",
        "grocery_or_supermarket",
        "store",
        "point_of_interest",
        "food",
        "establishment"
      ],
      "business_status": "OPERATIONAL"
    },
    {
      "place_id": "ChIJJysZxuzDYpYRje9lca1KQdc",
      "name": "Supermercado Lider",
      "address": "Av. Los Pajaritos 4500, Maipú",
      "lat": -33.4806767,
      "lon": -70.7469193,
      "rating": 4.2,
      "user_ratings_total": 11634,
      "types": [
        "supermarket",
        "grocery_or_supermarket",
        "store",
        "point_of_interest",
        "food",
        "establishment"
      ],
      "business_status": "OPERATIONAL"
    },
    {
      "place_id": "ChIJq_ivfyzJYpYRfPk9IvCQp-Q",
      "name": "Supermercado Lider",
      "address": "Buenaventura 1770, Vitacura",
      "lat": -33.3869407,
      "lon": -70.568022,
      "rating": 4.3,
      "user_ratings_total": 8649,
      "types": [
        "supermarket",
        "grocery_or_supermarket",
        "store",
        "point_of_interest",
        "food",
        "establishment"
      ],
      "business_status": "OPERATIONAL"
    },
    {
      "place_id": "ChIJf6Cc4V3QYpYRXTcAH1YWY2U",
      "name": "Supermercado Lider",
      "address": "V. Mackenna 7196, La Florida",
      "lat": -33.5193552,
      "lon": -70.6021516,
      "rating": 4.1,
      "user_ratings_total": 8245,
      "types": [
        "supermarket",
        "grocery_or_supermarket",
        "store",
        "point_of_interest",
        "food",
        "establishment"
      ],
      "business_status": "OPERATIONAL"
    },
    {
      "place_id": "ChIJ41ATJSzQYpYRoOTIzzPtY6M",
      "name": "Supermercado Lider",
      "address": "Av. Américo Vespucio 3100, Macul, Peñalolén",
      "lat": -33.4862494,
      "lon": -70.5782873,
      "rating": 4.1,
      "user_ratings_total": 6541,
      "types": [
        "supermarket",
        "grocery_or_supermarket",
        "store",
        "point_of_interest",
        "food",
        "establishment"
      ],
      "business_status": "OPERATIONAL"
    },
    {
      "place_id": "ChIJA5L1QcXAYpYR2Nlfi_PH-Kk",
      "name": "Supermercado Lider",
      "address": "Av. Bernardo O'Higgins 314, Quilicura",
      "lat": -33.3564038,
      "lon": -70.7278759,
      "rating": 4,
      "user_ratings_total": 11147,
      "types": [
        "supermarket",
        "grocery_or_supermarket",
        "store",
        "point_of_interest",
        "food",
        "establishment"
      ],
      "business_status": "OPERATIONAL"
    },
    {
      "place_id": "ChIJRzpAb57FYpYRFiKgxfldQBc",
      "name": "Supermercado Lider",
      "address": "Lo Marcoleta 361, Quilicura",
      "lat": -33.3591956,
      "lon": -70.74611469999999,
      "rating": 4.1,
      "user_ratings_total": 4856,
      "types": [
        "supermarket",
        "grocery_or_supermarket",
        "store",
        "point_of_interest",
        "food",
        "establishment"
      ],
      "business_status": "OPERATIONAL"
    },
    {
      "place_id": "ChIJL1DjTRfOYpYRFUneDtj5arw",
      "name": "Supermercado Lider",
      "address": "Jorge Alessandri 1131, La Reina",
      "lat": -33.4604192,
      "lon": -70.54371189999999,
      "rating": 4.1,
      "user_ratings_total": 9688,
      "types": [
        "supermarket",
        "grocery_or_supermarket",
        "store",
        "point_of_interest",
        "food",
        "establishment"
      ],
      "business_status": "OPERATIONAL"
    },
    {
      "place_id": "ChIJd4n7U1XFYpYREbk1st3PPYE",
      "name": "Supermercado Lider",
      "address": "Av. Vicuña Mackenna 3361, San Joaquín",
      "lat": -33.4842572,
      "lon": -70.62223709999999,
      "rating": 4.2,
      "user_ratings_total": 10483,
      "types": [
        "supermarket",
        "grocery_or_supermarket",
        "store",
        "point_of_interest",
        "food",
        "establishment"
      ],
      "business_status": "OPERATIONAL"
    },
    {
      "place_id": "ChIJ-yTr1gLdYpYR9f_hsM7K600",
      "name": "Supermercado Lider",
      "address": "Jorge Guerra S/N, Maipú",
      "lat": -33.541047,
      "lon": -70.7674784,
      "rating": 4.2,
      "user_ratings_total": 5420,
      "types": [
        "supermarket",
        "grocery_or_supermarket",
        "store",
        "point_of_interest",
        "food",
        "establishment"
      ],
      "business_status": "OPERATIONAL"
    },
    {
      "place_id": "ChIJhQi-r0nPYpYRFPc6FVeaw6Y",
      "name": "Supermercado Lider",
      "address": "Av. Américo Vespucio 881, Ñuñoa",
      "lat": -33.46328829999999,
      "lon": -70.5749431,
      "rating": 4,
      "user_ratings_total": 7454,
      "types": [
        "supermarket",
        "grocery_or_supermarket",
        "store",
        "point_of_interest",
        "food",
        "establishment"
      ],
      "business_status": "OPERATIONAL"
    },
    {
      "place_id": "ChIJqSwdDIDHYpYRcr9UitM_w6Y",
      "name": "Supermercado Lider",
      "address": "Av. Recoleta 3501, Recoleta",
      "lat": -33.3933778,
      "lon": -70.64125969999999,
      "rating": 3.9,
      "user_ratings_total": 8157,
      "types": [
        "supermarket",
        "grocery_or_supermarket",
        "store",
        "point_of_interest",
        "food",
        "establishment"
      ],
      "business_status": "OPERATIONAL"
    },
    {
      "place_id": "ChIJt3zYX03aYpYRtFPZKg86KNM",
      "name": "Supermercado Lider",
      "address": "Riquelme 69, El Bosque",
      "lat": -33.5463575,
      "lon": -70.6675582,
      "rating": 3.9,
      "user_ratings_total": 7843,
      "types": [
        "supermarket",
        "grocery_or_supermarket",
        "store",
        "point_of_interest",
        "food",
        "establishment"
      ],
      "business_status": "OPERATIONAL"
    },
    {
      "place_id": "ChIJL-dqE5HdYpYRmRHzawX5XFs",
      "name": "Supermercado Lider",
      "address": "Av. Américo Vespucio 2500, Cerrillos",
      "lat": -33.5163207,
      "lon": -70.7091839,
      "rating": 4.2,
      "user_ratings_total": 9930,
      "types": [
        "supermarket",
        "grocery_or_supermarket",
        "food",
        "store",
        "point_of_interest",
        "establishment"
      ],
      "business_status": "OPERATIONAL"
    },
    {
      "place_id": "ChIJSUOpOY_DYpYRlBAC0ND-zRw",
      "name": "Supermercado Lider",
      "address": "Neptuno 720, Lo Prado",
      "lat": -33.4451487,
      "lon": -70.7240023,
      "rating": 3.9,
      "user_ratings_total": 10216,
      "types": [
        "supermarket",
        "grocery_or_supermarket",
        "food",
        "store",
        "point_of_interest",
        "establishment"
      ],
      "business_status": "OPERATIONAL"
    },
    {
      "place_id": "ChIJq8nxpY7GYpYREP8UqLbyMNc",
      "name": "Supermercado Lider",
      "address": "Av. Independencia 4142, Conchalí",
      "lat": -33.3909561,
      "lon": -70.67592069999999,
      "rating": 4,
      "user_ratings_total": 8075,
      "types": [
        "supermarket",
        "grocery_or_supermarket",
        "food",
        "store",
        "point_of_interest",
        "establishment"
      ],
      "business_status": "OPERATIONAL"
    },
    {
      "place_id": "ChIJ8cqX16fdYpYRWUOp-zjm-6w",
      "name": "Supermercado Lider",
      "address": "Av. 3 Pte. N° 900, Maipú",
      "lat": -33.5281658,
      "lon": -70.77784439999999,
      "rating": 4,
      "user_ratings_total": 5752,
      "types": [
        "supermarket",
        "grocery_or_supermarket",
        "food",
        "store",
        "point_of_interest",
        "establishment"
      ],
      "business_status": "OPERATIONAL"
    },
    {
      "place_id": "ChIJ49TSb9nHYpYRgGDnN_zkzuI",
      "name": "Supermercado Lider",
      "address": "Av. Américo Vespucio 1737, Huechuraba",
      "lat": -33.364115,
      "lon": -70.6793469,
      "rating": 4.1,
      "user_ratings_total": 6777,
      "types": [
        "supermarket",
        "grocery_or_supermarket",
        "food",
        "store",
        "point_of_interest",
        "establishment"
      ],
      "business_status": "OPERATIONAL"
    },
    {
      "place_id": "ChIJ0wKaFejaYpYRTvBdkZtXKj8",
      "name": "Supermercado Lider",
      "address": "Gran Av. José Miguel Carrera 6150, San Miguel",
      "lat": -33.5122162,
      "lon": -70.6568108,
      "rating": 4.1,
      "user_ratings_total": 14881,
      "types": [
        "supermarket",
        "grocery_or_supermarket",
        "food",
        "store",
        "point_of_interest",
        "establishment"
      ],
      "business_status": "OPERATIONAL"
    },
    {
      "place_id": "ChIJwZY5ig7bYpYRVq-AL1NjBgE",
      "name": "Supermercado Lider",
      "address": "Av. Ochagavia 13115, San Bernardo",
      "lat": -33.5721709,
      "lon": -70.7016365,
      "rating": 4.5,
      "user_ratings_total": 389,
      "types": [
        "supermarket",
        "grocery_or_supermarket",
        "food",
        "store",
        "point_of_interest",
        "establishment"
      ],
      "business_status": "OPERATIONAL"
    },
    {
      "place_id": "ChIJq32o_3DOYpYRF6YTYxOZctI",
      "name": "Supermercado Lider",
      "address": "Av. Príncipe de Gales 9140, La Reina",
      "lat": -33.4405554,
      "lon": -70.5349834,
      "rating": 4.3,
      "user_ratings_total": 4140,
      "types": [
        "supermarket",
        "grocery_or_supermarket",
        "food",
        "store",
        "point_of_interest",
        "establishment"
      ],
      "business_status": "OPERATIONAL"
    },
    {
      "place_id": "ChIJGxcPOPDLYpYRlCImtfubmLs",
      "name": "Supermercado Lider",
      "address": "Av. Las Condes 12916, Lo Barnechea",
      "lat": -33.3706813,
      "lon": -70.51228619999999,
      "rating": 4.2,
      "user_ratings_total": 7407,
      "types": [
        "supermarket",
        "grocery_or_supermarket",
        "food",
        "store",
        "point_of_interest",
        "establishment"
      ],
      "business_status": "OPERATIONAL"
    },
    {
      "place_id": "ChIJwT3UA27aYpYRUJC5gIa0dHs",
      "name": "Supermercado Lider",
      "address": "Av. Sta. Rosa 9233, La Granja, San Ramón",
      "lat": -33.5455149,
      "lon": -70.6345053,
      "rating": 3.8,
      "user_ratings_total": 6476,
      "types": [
        "supermarket",
        "grocery_or_supermarket",
        "food",
        "store",
        "point_of_interest",
        "establishment"
      ],
      "business_status": "OPERATIONAL"
    },
    {
      "place_id": "ChIJo_BhbxjMYpYR5FXfHflss34",
      "name": "Supermercado Lider",
      "address": "Cam. El Alba 11865, Las Condes",
      "lat": -33.4019589,
      "lon": -70.5160599,
      "rating": 4.4,
      "user_ratings_total": 5209,
      "types": [
        "supermarket",
        "grocery_or_supermarket",
        "food",
        "store",
        "point_of_interest",
        "establishment"
      ],
      "business_status": "OPERATIONAL"
    },
    {
      "place_id": "ChIJH5hefGfQYpYR1Zke0uRuLy8",
      "name": "Supermercado Lider",
      "address": "Froilán Roa 7107, Local 64, La Florida",
      "lat": -33.5175026,
      "lon": -70.5966375,
      "rating": 4,
      "user_ratings_total": 5231,
      "types": [
        "supermarket",
        "grocery_or_supermarket",
        "food",
        "store",
        "point_of_interest",
        "establishment"
      ],
      "business_status": "OPERATIONAL"
    },
    {
      "place_id": "ChIJ2dowmr7BYpYR2Shf7a6wByQ",
      "name": "Supermercado Lider",
      "address": "Av. Miraflores 8412, Renca",
      "lat": -33.3995694,
      "lon": -70.7582971,
      "rating": 4.2,
      "user_ratings_total": 4363,
      "types": [
        "supermarket",
        "grocery_or_supermarket",
        "food",
        "store",
        "point_of_interest",
        "establishment"
      ],
      "business_status": "OPERATIONAL"
    },
    {
      "place_id": "ChIJ0wTwgkjEYpYR_BlXbhjWJCQ",
      "name": "Lider Matucana",
      "address": "Av. Matucana 1202, Quinta Normal",
      "lat": -33.4322996,
      "lon": -70.6810726,
      "rating": 4,
      "user_ratings_total": 9568,
      "types": [
        "supermarket",
        "grocery_or_supermarket",
        "food",
        "store",
        "point_of_interest",
        "establishment"
      ],
      "business_status": "OPERATIONAL"
    },
    {
      "place_id": "ChIJiTp3BwDDYpYRht2tyThmDFw",
      "name": "Supermercado Lider",
      "address": "Cam. la Farfana 1400, Santiago, Maipú",
      "lat": -33.4909549,
      "lon": -70.7713837,
      "rating": 4.7,
      "user_ratings_total": 35,
      "types": [
        "supermarket",
        "grocery_or_supermarket",
        "food",
        "store",
        "point_of_interest",
        "establishment"
      ],
      "business_status": "OPERATIONAL"
    },
    {
      "place_id": "ChIJmbk4cJHPYpYReCw3IzgyWfI",
      "name": "Líder Express Ñuñoa",
      "address": "Av. Irarrázaval Av. 2401, Ñuñoa",
      "lat": -33.4544538,
      "lon": -70.606673,
      "rating": 4.2,
      "user_ratings_total": 4470,
      "types": [
        "supermarket",
        "grocery_or_supermarket",
        "food",
        "store",
        "point_of_interest",
        "establishment"
      ],
      "business_status": "OPERATIONAL"
    },
    {
      "place_id": "ChIJVUY1LgvJYpYRCCWCaArDWLM",
      "name": "Líder Express Pie Andino",
      "address": "Av. Paseo Pie Andino 5800, Lo Barnechea",
      "lat": -33.3239416,
      "lon": -70.53851159999999,
      "rating": 4.4,
      "user_ratings_total": 128,
      "types": [
        "supermarket",
        "grocery_or_supermarket",
        "food",
        "store",
        "point_of_interest",
        "establishment"
      ],
      "business_status": "OPERATIONAL"
    },
    {
      "place_id": "ChIJXadGg2PFYpYR_FBdPuIHTLQ",
      "name": "Express de Lider",
      "address": "Av. Grecia 245, Ñuñoa",
      "lat": -33.455821,
      "lon": -70.6269026,
      "rating": 4.2,
      "user_ratings_total": 5878,
      "types": [
        "supermarket",
        "grocery_or_supermarket",
        "food",
        "store",
        "point_of_interest",
        "establishment"
      ],
      "business_status": "OPERATIONAL"
    },
    {
      "place_id": "ChIJ3Zodb7HPYpYRgP_6Fu1VkCI",
      "name": "Líder Express Coventry",
      "address": "Coventry 601, Ñuñoa",
      "lat": -33.4486356,
      "lon": -70.5805036,
      "rating": 3.7,
      "user_ratings_total": 1131,
      "types": [
        "supermarket",
        "grocery_or_supermarket",
        "food",
        "store",
        "point_of_interest",
        "establishment"
      ],
      "business_status": "OPERATIONAL"
    },
    {
      "place_id": "ChIJRXaNNbXPYpYRlnvP6qabeVY",
      "name": "Líder Express Plaza Egaña",
      "address": "Av. Irarrázaval 5353, Ñuñoa",
      "lat": -33.4537001,
      "lon": -70.574815,
      "rating": 4.2,
      "user_ratings_total": 3266,
      "types": [
        "supermarket",
        "grocery_or_supermarket",
        "food",
        "store",
        "point_of_interest",
        "establishment"
      ],
      "business_status": "OPERATIONAL"
    },
    {
      "place_id": "ChIJZ9Sib-3OYpYR0TZiwwDbSqE",
      "name": "Líder Express Colón",
      "address": "Av.Presidente Sebastián Piñera Echenique 1016, Las Condes",
      "lat": -33.4183467,
      "lon": -70.5518444,
      "rating": 4,
      "user_ratings_total": 2947,
      "types": [
        "supermarket",
        "grocery_or_supermarket",
        "store",
        "food",
        "point_of_interest",
        "establishment"
      ],
      "business_status": "OPERATIONAL"
    },
    {
      "place_id": "ChIJg0ngpKTFYpYR54TbGPxK3RY",
      "name": "Express de Lider",
      "address": "Santo Domingo 1031, Santiago",
      "lat": -33.436131,
      "lon": -70.65194009999999,
      "rating": 4,
      "user_ratings_total": 5806,
      "types": [
        "supermarket",
        "grocery_or_supermarket",
        "store",
        "food",
        "point_of_interest",
        "establishment"
      ],
      "business_status": "OPERATIONAL"
    },
    {
      "place_id": "ChIJ85WoZS_QYpYRalTZYB_EiZI",
      "name": "Líder Express Ramón Cruz",
      "address": "Ramón Cruz Montt 3219, Macul",
      "lat": -33.4847809,
      "lon": -70.58539549999999,
      "rating": 3.9,
      "user_ratings_total": 890,
      "types": [
        "supermarket",
        "grocery_or_supermarket",
        "store",
        "food",
        "point_of_interest",
        "establishment"
      ],
      "business_status": "OPERATIONAL"
    },
    {
      "place_id": "ChIJv33B2d7XYpYRGuN5xJtJ7hc",
      "name": "Express de Lider",
      "address": "Av. Diego Portales 06303, Puente Alto",
      "lat": -33.5597148,
      "lon": -70.5514969,
      "rating": 4,
      "user_ratings_total": 2854,
      "types": [
        "supermarket",
        "grocery_or_supermarket",
        "store",
        "food",
        "point_of_interest",
        "establishment"
      ],
      "business_status": "OPERATIONAL"
    },
    {
      "place_id": "ChIJ3V7GgajFYpYRtbSlPJiZ5m8",
      "name": "Express de Lider",
      "address": "San Martín 35, Santiago",
      "lat": -33.4442427,
      "lon": -70.6569361,
      "rating": 4.2,
      "user_ratings_total": 5693,
      "types": [
        "supermarket",
        "grocery_or_supermarket",
        "store",
        "food",
        "point_of_interest",
        "establishment"
      ],
      "business_status": "OPERATIONAL"
    },
    {
      "place_id": "ChIJz803v83AYpYR0ajGSxszzV0",
      "name": "Express de Lider",
      "address": "Av. lo Cruzat 281, Local 3, Quilicura",
      "lat": -33.358319,
      "lon": -70.721289,
      "rating": 4,
      "user_ratings_total": 1115,
      "types": [
        "supermarket",
        "grocery_or_supermarket",
        "store",
        "food",
        "point_of_interest",
        "establishment"
      ],
      "business_status": "OPERATIONAL"
    },
    {
      "place_id": "ChIJP90IYg_FYpYRdJsq_jQZwvg",
      "name": "Express de Lider",
      "address": "Diez de Julio 1625, Santiago",
      "lat": -33.4541511,
      "lon": -70.6572494,
      "rating": 4.1,
      "user_ratings_total": 8088,
      "types": [
        "supermarket",
        "grocery_or_supermarket",
        "store",
        "food",
        "point_of_interest",
        "establishment"
      ],
      "business_status": "OPERATIONAL"
    },
    {
      "place_id": "ChIJn802gCvBYpYRbvRiQe6ZuRo",
      "name": "Express de Lider",
      "address": "Av. Américo Vespucio 1651, Quilicura",
      "lat": -33.3744509,
      "lon": -70.7187618,
      "rating": 4.4,
      "user_ratings_total": 2230,
      "types": [
        "supermarket",
        "grocery_or_supermarket",
        "store",
        "food",
        "point_of_interest",
        "establishment"
      ],
      "business_status": "OPERATIONAL"
    },
    {
      "place_id": "ChIJQU9DfDTbYpYRWRRSsbug7KE",
      "name": "Express de Líder",
      "address": "Av. Central 5960, Pedro Aguirre Cerda",
      "lat": -33.4979916,
      "lon": -70.68769979999999,
      "rating": 3.8,
      "user_ratings_total": 744,
      "types": [
        "supermarket",
        "grocery_or_supermarket",
        "store",
        "food",
        "point_of_interest",
        "establishment"
      ],
      "business_status": "OPERATIONAL"
    },
    {
      "place_id": "ChIJ6yrFl5jFYpYRHwRv17s0og8",
      "name": "Express de Lider",
      "address": "Merced 560, Santiago",
      "lat": -33.4379903,
      "lon": -70.6447044,
      "rating": 4.2,
      "user_ratings_total": 8048,
      "types": [
        "supermarket",
        "grocery_or_supermarket",
        "store",
        "food",
        "point_of_interest",
        "establishment"
      ],
      "business_status": "OPERATIONAL"
    },
    {
      "place_id": "ChIJE6nnvO3QYpYR7NEFCMgQ_ok",
      "name": "Express de Lider",
      "address": "Vicuña Mackenna 8725-8799, La Florida",
      "lat": -33.5354444,
      "lon": -70.59348179999999,
      "rating": 3.8,
      "user_ratings_total": 724,
      "types": [
        "supermarket",
        "grocery_or_supermarket",
        "store",
        "food",
        "point_of_interest",
        "establishment"
      ],
      "business_status": "OPERATIONAL"
    },
    {
      "place_id": "ChIJeWUxFUvRYpYRtUVK-VGQ8HY",
      "name": "Express de Lider",
      "address": "Sánchez Fontecilla 8968, La Florida",
      "lat": -33.5345042,
      "lon": -70.553912,
      "rating": 4.2,
      "user_ratings_total": 2285,
      "types": [
        "supermarket",
        "grocery_or_supermarket",
        "store",
        "food",
        "point_of_interest",
        "establishment"
      ],
      "business_status": "OPERATIONAL"
    },
    {
      "place_id": "ChIJDylAekjDYpYRF0yoG8pKa9c",
      "name": "Express de Líder",
      "address": "Primo de Rivera 1447, Santiago, Maipú",
      "lat": -33.4928714,
      "lon": -70.7383531,
      "rating": 3.7,
      "user_ratings_total": 945,
      "types": [
        "supermarket",
        "grocery_or_supermarket",
        "store",
        "food",
        "point_of_interest",
        "establishment"
      ],
      "business_status": "OPERATIONAL"
    },
    {
      "place_id": "ChIJi2rKFxPPYpYRFGb65YR-zCo",
      "name": "Express de Lider",
      "address": "Las Camelias 2875, Providencia",
      "lat": -33.4228184,
      "lon": -70.5965925,
      "rating": 4.1,
      "user_ratings_total": 4233,
      "types": [
        "supermarket",
        "grocery_or_supermarket",
        "store",
        "food",
        "point_of_interest",
        "establishment"
      ],
      "business_status": "OPERATIONAL"
    },
    {
      "place_id": "ChIJWYT850zEYpYRLv8wXQNqrEk",
      "name": "Express de Lider",
      "address": "San Pablo 2362, Santiago",
      "lat": -33.435297,
      "lon": -70.6706178,
      "rating": 4.1,
      "user_ratings_total": 4932,
      "types": [
        "supermarket",
        "grocery_or_supermarket",
        "store",
        "food",
        "point_of_interest",
        "establishment"
      ],
      "business_status": "OPERATIONAL"
    },
    {
      "place_id": "ChIJn0gNhofPYpYRphAbq4HOSOs",
      "name": "Express de Lider",
      "address": "Av. Salvador 1822, Ñuñoa",
      "lat": -33.4494748,
      "lon": -70.6212445,
      "rating": 4.3,
      "user_ratings_total": 3456,
      "types": [
        "supermarket",
        "grocery_or_supermarket",
        "store",
        "food",
        "point_of_interest",
        "establishment"
      ],
      "business_status": "OPERATIONAL"
    },
    {
      "place_id": "ChIJC8mEWnfFYpYR_vIawj5plbo",
      "name": "Express de Lider",
      "address": "Av. Sta. Isabel 170, Providencia",
      "lat": -33.4467635,
      "lon": -70.62907609999999,
      "rating": 4.1,
      "user_ratings_total": 4307,
      "types": [
        "supermarket",
        "grocery_or_supermarket",
        "store",
        "food",
        "point_of_interest",
        "establishment"
      ],
      "business_status": "OPERATIONAL"
    },
    {
      "place_id": "ChIJIUF83RDRYpYRprS6Aa8wTuM",
      "name": "Express de Lider",
      "address": "Av. Consistorial 3349, Peñalolén",
      "lat": -33.4877831,
      "lon": -70.5496179,
      "rating": 4.1,
      "user_ratings_total": 2083,
      "types": [
        "supermarket",
        "grocery_or_supermarket",
        "store",
        "food",
        "point_of_interest",
        "establishment"
      ],
      "business_status": "OPERATIONAL"
    },
    {
      "place_id": "ChIJaVki0YfEYpYR0Rtv89QasCs",
      "name": "Express de Lider Las Rejas - Estación Central",
      "address": "Av. Alameda Libertador Bernardo O'Higgins 5199, Estación Central",
      "lat": -33.456501,
      "lon": -70.7052841,
      "rating": 4.2,
      "user_ratings_total": 4438,
      "types": [
        "supermarket",
        "grocery_or_supermarket",
        "store",
        "food",
        "point_of_interest",
        "establishment"
      ],
      "business_status": "OPERATIONAL"
    },
    {
      "place_id": "ChIJA9f4rArFYpYRYggix6-2L7s",
      "name": "Express de Lider",
      "address": "Av. Sta. Rosa 115, Santiago",
      "lat": -33.4456615,
      "lon": -70.6459194,
      "rating": 4,
      "user_ratings_total": 8742,
      "types": [
        "supermarket",
        "grocery_or_supermarket",
        "store",
        "food",
        "point_of_interest",
        "establishment"
      ],
      "business_status": "OPERATIONAL"
    },
    {
      "place_id": "ChIJ1VogNP3nYpYRCKScXayv9wM",
      "name": "Supermercado Lider",
      "address": "Av. Balmaceda 684, Penaflor, Peñaflor",
      "lat": -33.6088135,
      "lon": -70.8554448,
      "rating": 4.2,
      "user_ratings_total": 4385,
      "types": [
        "supermarket",
        "grocery_or_supermarket",
        "store",
        "point_of_interest",
        "food",
        "establishment"
      ],
      "business_status": "OPERATIONAL"
    },
    {
      "place_id": "ChIJLdZ_1nzDYpYRqrDpM_FP1Ww",
      "name": "Supermercado Lider",
      "address": "Libertador Bernardo O'Higgins 807, Talagante",
      "lat": -33.6623746,
      "lon": -70.9252406,
      "rating": 4,
      "user_ratings_total": 4523,
      "types": [
        "supermarket",
        "grocery_or_supermarket",
        "store",
        "point_of_interest",
        "food",
        "establishment"
      ],
      "business_status": "OPERATIONAL"
    },
    {
      "place_id": "ChIJ2TwYpgPXYpYR6U4UBJkYax0",
      "name": "Supermercado Lider",
      "address": "Av. Concha y Toro 1149 / parad.37½, Puente Alto",
      "lat": -33.5991482,
      "lon": -70.5755509,
      "rating": 4,
      "user_ratings_total": 13098,
      "types": [
        "supermarket",
        "grocery_or_supermarket",
        "store",
        "point_of_interest",
        "food",
        "establishment"
      ],
      "business_status": "OPERATIONAL"
    },
    {
      "place_id": "ChIJRe7Vm9bYYpYR2uC5ATGBVjA",
      "name": "Supermercado Lider",
      "address": "Av. Pdte. Jorge Alessandri Rodríguez 20040, San Bernardo",
      "lat": -33.6316638,
      "lon": -70.7103613,
      "rating": 4.1,
      "user_ratings_total": 5508,
      "types": [
        "supermarket",
        "grocery_or_supermarket",
        "store",
        "point_of_interest",
        "food",
        "establishment"
      ],
      "business_status": "OPERATIONAL"
    },
    {
      "place_id": "ChIJeaH6ckTZYpYRDCmk_EnDnII",
      "name": "Supermercado Lider",
      "address": "Av. San José 69, local 1, San Bernardo",
      "lat": -33.597705,
      "lon": -70.6994398,
      "rating": 4,
      "user_ratings_total": 7489,
      "types": [
        "supermarket",
        "grocery_or_supermarket",
        "food",
        "point_of_interest",
        "store",
        "establishment"
      ],
      "business_status": "OPERATIONAL"
    },
    {
      "place_id": "ChIJcwypy_HWYpYR_nE-c3b3cyU",
      "name": "Líder Express México",
      "address": "Av. México 1589, Puente Alto",
      "lat": -33.5939598,
      "lon": -70.5589523,
      "rating": 4.1,
      "user_ratings_total": 3675,
      "types": [
        "supermarket",
        "grocery_or_supermarket",
        "food",
        "point_of_interest",
        "store",
        "establishment"
      ],
      "business_status": "OPERATIONAL"
    },
    {
      "place_id": "ChIJFYEM01TWYpYRlReYhVaA9fg",
      "name": "Líder Express Puente Alto",
      "address": "José Luis Coo 0158, Puente Alto",
      "lat": -33.6088915,
      "lon": -70.5740629,
      "rating": 3.8,
      "user_ratings_total": 797,
      "types": [
        "supermarket",
        "grocery_or_supermarket",
        "point_of_interest",
        "store",
        "food",
        "establishment"
      ],
      "business_status": "OPERATIONAL"
    },
    {
      "place_id": "ChIJS4dIqy_XYpYRgH6c9F90Q5I",
      "name": "Jumbo",
      "address": "Av. Concha y Toro 3854, Santiago, Puente Alto",
      "lat": -33.5710787,
      "lon": -70.58482839999999,
      "rating": 4.3,
      "user_ratings_total": 15795,
      "types": [
        "supermarket",
        "grocery_or_supermarket",
        "point_of_interest",
        "store",
        "food",
        "establishment"
      ],
      "business_status": "OPERATIONAL"
    },
    {
      "place_id": "ChIJL1TQ3T4hY5YRJJzCoKRw8EY",
      "name": "Express de Lider",
      "address": "San Martín 555, Buin",
      "lat": -33.7363243,
      "lon": -70.73690789999999,
      "rating": 4.3,
      "user_ratings_total": 2585,
      "types": [
        "supermarket",
        "grocery_or_supermarket",
        "point_of_interest",
        "store",
        "food",
        "establishment"
      ],
      "business_status": "OPERATIONAL"
    },
    {
      "place_id": "ChIJ5y5Jjt7WYpYRuMZ6q_HsR3w",
      "name": "Express de Lider",
      "address": "Avenida, Nonato Coo 3108, Puente Alto",
      "lat": -33.5806606,
      "lon": -70.56938819999999,
      "rating": 4,
      "user_ratings_total": 4240,
      "types": [
        "supermarket",
        "grocery_or_supermarket",
        "food",
        "point_of_interest",
        "store",
        "establishment"
      ],
      "business_status": "OPERATIONAL"
    },
    {
      "place_id": "ChIJPzUbXILFYpYRDLfp1gK6eGY",
      "name": "Express de Lider",
      "address": "Rancagua 0180, Providencia",
      "lat": -33.4407539,
      "lon": -70.63060759999999,
      "rating": 4,
      "user_ratings_total": 4948,
      "types": [
        "supermarket",
        "grocery_or_supermarket",
        "food",
        "point_of_interest",
        "store",
        "establishment"
      ],
      "business_status": "OPERATIONAL"
    },
    {
      "place_id": "ChIJ33BsWcvaYpYRY543dfMGZfQ",
      "name": "Express de Lider",
      "address": "Gran Av. José Miguel Carrera 4004, San Miguel",
      "lat": -33.4912094,
      "lon": -70.65029559999999,
      "rating": 4.1,
      "user_ratings_total": 5650,
      "types": [
        "supermarket",
        "grocery_or_supermarket",
        "food",
        "point_of_interest",
        "store",
        "establishment"
      ],
      "business_status": "OPERATIONAL"
    },
    {
      "place_id": "ChIJfSiRdhvFYpYRbLnqENekv_c",
      "name": "Express de Lider",
      "address": "Portugal 225, Santiago",
      "lat": -33.445558,
      "lon": -70.63681129999999,
      "rating": 4.1,
      "user_ratings_total": 6469,
      "types": [
        "supermarket",
        "grocery_or_supermarket",
        "food",
        "point_of_interest",
        "store",
        "establishment"
      ],
      "business_status": "OPERATIONAL"
    },
    {
      "place_id": "ChIJE4hd2hvDYpYRN8hfuF0IsOc",
      "name": "Express de Lider",
      "address": "Av. Américo Vespucio 1076, Local 029, Maipú",
      "lat": -33.4781532,
      "lon": -70.7568201,
      "rating": 4.3,
      "user_ratings_total": 2842,
      "types": [
        "supermarket",
        "grocery_or_supermarket",
        "food",
        "point_of_interest",
        "store",
        "establishment"
      ],
      "business_status": "OPERATIONAL"
    },
    {
      "place_id": "ChIJGfHSJQrFYpYRZGR6cRe24zY",
      "name": "Express de Lider",
      "address": "San Diego 219, Santiago",
      "lat": -33.4477832,
      "lon": -70.6512116,
      "rating": 3.8,
      "user_ratings_total": 1863,
      "types": [
        "supermarket",
        "grocery_or_supermarket",
        "food",
        "point_of_interest",
        "store",
        "establishment"
      ],
      "business_status": "OPERATIONAL"
    },
    {
      "place_id": "ChIJlXE9NM3DYpYRB0mGnZdlz80",
      "name": "Express de Lider",
      "address": "Isabel Riquelme Sur 1446, Maipú",
      "lat": -33.4850715,
      "lon": -70.7391986,
      "rating": 4.2,
      "user_ratings_total": 2628,
      "types": [
        "supermarket",
        "grocery_or_supermarket",
        "food",
        "point_of_interest",
        "store",
        "establishment"
      ],
      "business_status": "OPERATIONAL"
    },
    {
      "place_id": "ChIJ-_Gf5NPcYpYREr7x8uy8-lQ",
      "name": "Express de Lider",
      "address": "Av. Los Pajaritos 1790, Maipú",
      "lat": -33.510909,
      "lon": -70.75810729999999,
      "rating": 4,
      "user_ratings_total": 2995,
      "types": [
        "supermarket",
        "grocery_or_supermarket",
        "food",
        "point_of_interest",
        "store",
        "establishment"
      ],
      "business_status": "OPERATIONAL"
    },
    {
      "place_id": "ChIJF6fCuazOYpYRyQFifg0Y0io",
      "name": "Express de Lider",
      "address": "Av. Las Condes 10295, Las Condes",
      "lat": -33.38490230000001,
      "lon": -70.53346499999999,
      "rating": 4.3,
      "user_ratings_total": 4893,
      "types": [
        "supermarket",
        "grocery_or_supermarket",
        "point_of_interest",
        "store",
        "food",
        "establishment"
      ],
      "business_status": "OPERATIONAL"
    },
    {
      "place_id": "ChIJv6ho7QfHYpYRNca5PGlnQQY",
      "name": "Express de Lider",
      "address": "Av. Pedro Fontova 7455, Huechuraba",
      "lat": -33.353206,
      "lon": -70.6693331,
      "rating": 4.3,
      "user_ratings_total": 2925,
      "types": [
        "supermarket",
        "grocery_or_supermarket",
        "point_of_interest",
        "store",
        "food",
        "establishment"
      ],
      "business_status": "OPERATIONAL"
    },
    {
      "place_id": "ChIJGf5x-QHPYpYRfHam-e_vNYU",
      "name": "Express de Lider",
      "address": "Av. Américo Vespucio 1790, Las Condes",
      "lat": -33.4284837,
      "lon": -70.5743138,
      "rating": 4.1,
      "user_ratings_total": 3270,
      "types": [
        "supermarket",
        "grocery_or_supermarket",
        "point_of_interest",
        "store",
        "food",
        "establishment"
      ],
      "business_status": "OPERATIONAL"
    },
    {
      "place_id": "ChIJe8XdwwnFYpYRN5i4IQNTAaQ",
      "name": "Express de Lider",
      "address": "Av. Independencia 1113, Independencia",
      "lat": -33.4174044,
      "lon": -70.65596930000001,
      "rating": 3.8,
      "user_ratings_total": 751,
      "types": [
        "supermarket",
        "grocery_or_supermarket",
        "point_of_interest",
        "store",
        "food",
        "establishment"
      ],
      "business_status": "OPERATIONAL"
    },
    {
      "place_id": "ChIJH-V7z2LPYpYRyIgMsdjNlvg",
      "name": "Express de Lider",
      "address": "Manuel Montt 80, Providencia",
      "lat": -33.4293546,
      "lon": -70.6198321,
      "rating": 3.8,
      "user_ratings_total": 4210,
      "types": [
        "supermarket",
        "grocery_or_supermarket",
        "point_of_interest",
        "store",
        "food",
        "establishment"
      ],
      "business_status": "OPERATIONAL"
    },
    {
      "place_id": "ChIJGW3kA1fPYpYRLKtn26FNpgM",
      "name": "Express de Lider",
      "address": "Av. Nueva Providencia 2249, Providencia",
      "lat": -33.4226778,
      "lon": -70.6093044,
      "rating": 4.1,
      "user_ratings_total": 5534,
      "types": [
        "supermarket",
        "grocery_or_supermarket",
        "store",
        "food",
        "point_of_interest",
        "establishment"
      ],
      "business_status": "OPERATIONAL"
    },
    {
      "place_id": "ChIJLSvgq0rXYpYRRhdEg_GtJMs",
      "name": "Express de Lider",
      "address": "Lira 464, Santiago",
      "lat": -33.4486953,
      "lon": -70.6390229,
      "rating": 3.8,
      "user_ratings_total": 2248,
      "types": [
        "supermarket",
        "grocery_or_supermarket",
        "store",
        "food",
        "point_of_interest",
        "establishment"
      ],
      "business_status": "OPERATIONAL"
    },
    {
      "place_id": "ChIJO1nLDHXFYpYRO1DlOZLLzgs",
      "name": "Express de Lider",
      "address": "Curicó 517, Santiago",
      "lat": -33.4460467,
      "lon": -70.6431923,
      "rating": 3.8,
      "user_ratings_total": 1732,
      "types": [
        "supermarket",
        "grocery_or_supermarket",
        "store",
        "food",
        "point_of_interest",
        "establishment"
      ],
      "business_status": "OPERATIONAL"
    },