{
  "Lider": [
    {
      "place_id": "ChIJz9xvWfXEYpYRZjrCjzQkZn0",
      "name": "Supermercado Lider",
      "address": "Av. Padre Alberto Hurtado 060, Estación Central",
      "lat": -33.452364,
      "lon": -70.6921745,
      "rating": 4,
      "user_ratings_total": 26344,
      "types": [
        "supermarket",
        "grocery_or_supermarket",
        "store",
        "food",
        "point_of_interest",
        "establishment"
      ],
      "business_status": "OPERATIONAL"
    },
    {
      "place_id": "ChIJr49I0pXPYpYRVBLFqbXZ8ok",
      "name": "Supermercado Lider",
      "address": "Av. Irarrázaval 2928, Ñuñoa",
      "lat": -33.4530562,
      "lon": -70.60078980000002,
      "rating": 4,
      "user_ratings_total": 16071,
      "types": [
        "supermarket",
        "grocery_or_supermarket",
        "store",
        "food",
        "point_of_interest",
        "establishment"
      ],
      "business_status": "OPERATIONAL"
    },
    {
      "place_id": "ChIJ2TwYpgPXYpYR6U4UBJkYax0",
      "name": "Supermercado Lider",
      "address": "Av. Concha y Toro 1149 / parad.37½, Puente Alto",
      "lat": -33.5991482,
      "lon": -70.5755509,
      "rating": 4,
      "user_ratings_total": 13093,
      "types": [
        "supermarket",
        "grocery_or_supermarket",
        "store",
        "food",
        "point_of_interest",
        "establishment"
      ],
      "business_status": "OPERATIONAL"
    },
    {
      "place_id": "ChIJt0p0TFvQYpYR0m6FXGdOIFk",
      "name": "Supermercado Lider",
      "address": "Av. Américo Vespucio 6325, La Florida",
      "lat": -33.511853,
      "lon": -70.5917242,
      "rating": 4.1,
      "user_ratings_total": 10229,
      "types": [
        "supermarket",
        "grocery_or_supermarket",
        "store",
        "food",
        "point_of_interest",
        "establishment"
      ],
      "business_status": "OPERATIONAL"
    },
    {
      "place_id": "ChIJr4yJkPndYpYRiICXjJK0HyU",
      "name": "Supermercado Lider",
      "address": "Av. Los Pajaritos 2689, Maipú",
      "lat": -33.5025278,
      "lon": -70.7564325,
      "rating": 4.1,
      "user_ratings_total": 10823,
      "types": [
        "supermarket",
        "grocery_or_supermarket",
        "store",
        "food",
        "point_of_interest",
        "establishment"
      ],
      "business_status": "OPERATIONAL"
    },
    {
      "place_id": "ChIJwXt4dQPDYpYRIbyTPu7BIlk",
      "name": "Supermercado Lider",
      "address": "Av. Américo Vespucio 1955, Maipú",
      "lat": -33.4719132,
      "lon": -70.75823729999999,
      "rating": 4.1,
      "user_ratings_total": 7434,
      "types": [
        "supermarket",
        "grocery_or_supermarket",
        "store",
        "food",
        "point_of_interest",
        "establishment"
      ],
      "business_status": "OPERATIONAL"
    },
    {
      "place_id": "ChIJf6Cc4V3QYpYRXTcAH1YWY2U",
      "name": "Supermercado Lider",
      "address": "V. Mackenna 7196, La Florida",
      "lat": -33.5193552,
      "lon": -70.6021516,
      "rating": 4.1,
      "user_ratings_total": 8241,
      "types": [
        "supermarket",
        "grocery_or_supermarket",
        "store",
        "food",
        "point_of_interest",
        "establishment"
      ],
      "business_status": "OPERATIONAL"
    },
    {
      "place_id": "ChIJJysZxuzDYpYRje9lca1KQdc",
      "name": "Supermercado Lider",
      "address": "Av. Los Pajaritos 4500, Maipú",
      "lat": -33.4806767,
      "lon": -70.7469193,
      "rating": 4.2,
      "user_ratings_total": 11629,
      "types": [
        "supermarket",
        "grocery_or_supermarket",
        "store",
        "food",
        "point_of_interest",
        "establishment"
      ],
      "business_status": "OPERATIONAL"
    },
    {
      "place_id": "ChIJHyTgA-rPYpYRHoOit9WD3l4",
      "name": "Supermercado Lider",
      "address": "Av. José Pedro Alessandri 2127, Macul",
      "lat": -33.4744462,
      "lon": -70.5996016,
      "rating": 4,
      "user_ratings_total": 11869,
      "types": [
        "supermarket",
        "grocery_or_supermarket",
        "store",
        "food",
        "point_of_interest",
        "establishment"
      ],
      "business_status": "OPERATIONAL"
    },
    {
      "place_id": "ChIJxQtHP5fRYpYRMTMnvq147n8",
      "name": "Supermercado Lider",
      "address": "Av - Sta. Amalia 1763, La Florida",
      "lat": -33.5450889,
      "lon": -70.5704353,
      "rating": 4.2,
      "user_ratings_total": 16073,
      "types": [
        "supermarket",
        "grocery_or_supermarket",
        "store",
        "food",
        "point_of_interest",
        "establishment"
      ],
      "business_status": "OPERATIONAL"
    },
    {
      "place_id": "ChIJq_ivfyzJYpYRfPk9IvCQp-Q",
      "name": "Supermercado Lider",
      "address": "Buenaventura 1770, Vitacura",
      "lat": -33.3869407,
      "lon": -70.568022,
      "rating": 4.3,
      "user_ratings_total": 8641,
      "types": [
        "supermarket",
        "grocery_or_supermarket",
        "store",
        "food",
        "point_of_interest",
        "establishment"
      ],
      "business_status": "OPERATIONAL"
    },
    {
      "place_id": "ChIJXT6h7c7WYpYR9gPa5GZS8o8",
      "name": "Supermercado Lider",
      "address": "Los Toros 05441, Puente Alto",
      "lat": -33.5670618,
      "lon": -70.5579972,
      "rating": 4.1,
      "user_ratings_total": 10326,
      "types": [
        "supermarket",
        "grocery_or_supermarket",
        "store",
        "food",
        "point_of_interest",
        "establishment"
      ],
      "business_status": "OPERATIONAL"
    },
    {
      "place_id": "ChIJ41ATJSzQYpYRoOTIzzPtY6M",
      "name": "Supermercado Lider",
      "address": "Av. Américo Vespucio 3100, Macul, Peñalolén",
      "lat": -33.4862494,
      "lon": -70.5782873,
      "rating": 4.1,
      "user_ratings_total": 6535,
      "types": [
        "supermarket",
        "grocery_or_supermarket",
        "store",
        "food",
        "point_of_interest",
        "establishment"
      ],
      "business_status": "OPERATIONAL"
    },
    {
      "place_id": "ChIJA5L1QcXAYpYR2Nlfi_PH-Kk",
      "name": "Supermercado Lider",
      "address": "Av. Bernardo O'Higgins 314, Quilicura",
      "lat": -33.3564038,
      "lon": -70.7278759,
      "rating": 4,
      "user_ratings_total": 11137,
      "types": [
        "supermarket",
        "grocery_or_supermarket",
        "store",
        "food",
        "point_of_interest",
        "establishment"
      ],
      "business_status": "OPERATIONAL"
    },
    {
      "place_id": "ChIJRzpAb57FYpYRFiKgxfldQBc",
      "name": "Supermercado Lider",
      "address": "Lo Marcoleta 361, Quilicura",
      "lat": -33.3591956,
      "lon": -70.74611469999999,
      "rating": 4.1,
      "user_ratings_total": 4852,
      "types": [
        "supermarket",
        "grocery_or_supermarket",
        "store",
        "food",
        "point_of_interest",
        "establishment"
      ],
      "business_status": "OPERATIONAL"
    },
    {
      "place_id": "ChIJ-yTr1gLdYpYR9f_hsM7K600",
      "name": "Supermercado Lider",
      "address": "Jorge Guerra S/N, Maipú",
      "lat": -33.541047,
      "lon": -70.7674784,
      "rating": 4.2,
      "user_ratings_total": 5420,
      "types": [
        "supermarket",
        "grocery_or_supermarket",
        "store",
        "food",
        "point_of_interest",
        "establishment"
      ],
      "business_status": "OPERATIONAL"
    },
    {
      "place_id": "ChIJL1DjTRfOYpYRFUneDtj5arw",
      "name": "Supermercado Lider",
      "address": "Jorge Alessandri 1131, La Reina",
      "lat": -33.4604192,
      "lon": -70.54371189999999,
      "rating": 4.1,
      "user_ratings_total": 9680,
      "types": [
        "supermarket",
        "grocery_or_supermarket",
        "store",
        "food",
        "point_of_interest",
        "establishment"
      ],
      "business_status": "OPERATIONAL"
    },
    {
      "place_id": "ChIJhQi-r0nPYpYRFPc6FVeaw6Y",
      "name": "Supermercado Lider",
      "address": "Av. Américo Vespucio 881, Ñuñoa",
      "lat": -33.46328829999999,
      "lon": -70.5749431,
      "rating": 4,
      "user_ratings_total": 7451,
      "types": [
        "supermarket",
        "grocery_or_supermarket",
        "store",
        "food",
        "point_of_interest",
        "establishment"
      ],
      "business_status": "OPERATIONAL"
    },
    {
      "place_id": "ChIJd4n7U1XFYpYREbk1st3PPYE",
      "name": "Supermercado Lider",
      "address": "Av. Vicuña Mackenna 3361, San Joaquín",
      "lat": -33.4842572,
      "lon": -70.62223709999999,
      "rating": 4.2,
      "user_ratings_total": 10474,
      "types": [
        "supermarket",
        "grocery_or_supermarket",
        "store",
        "food",
        "point_of_interest",
        "establishment"
      ],
      "business_status": "OPERATIONAL"
    },
    {
      "place_id": "ChIJRe7Vm9bYYpYR2uC5ATGBVjA",
      "name": "Supermercado Lider",
      "address": "Av. Pdte. Jorge Alessandri Rodríguez 20040, San Bernardo",
      "lat": -33.6316638,
      "lon": -70.7103613,
      "rating": 4.1,
      "user_ratings_total": 5508,
      "types": [
        "supermarket",
        "grocery_or_supermarket",
        "store",
        "food",
        "point_of_interest",
        "establishment"
      ],
      "business_status": "OPERATIONAL"
    },
    {
      "place_id": "ChIJL-dqE5HdYpYRmRHzawX5XFs",
      "name": "Supermercado Lider",
      "address": "Av. Américo Vespucio 2500, Cerrillos",
      "lat": -33.5163207,
      "lon": -70.7091839,
      "rating": 4.2,
      "user_ratings_total": 9928,
      "types": [
        "supermarket",
        "grocery_or_supermarket",
        "food",
        "point_of_interest",
        "store",
        "establishment"
      ],
      "business_status": "OPERATIONAL"
    },
    {
      "place_id": "ChIJSUOpOY_DYpYRlBAC0ND-zRw",
      "name": "Supermercado Lider",
      "address": "Neptuno 720, Lo Prado",
      "lat": -33.4451487,
      "lon": -70.7240023,
      "rating": 3.9,
      "user_ratings_total": 10212,
      "types": [
        "supermarket",
        "grocery_or_supermarket",
        "food",
        "point_of_interest",
        "store",
        "establishment"
      ],
      "business_status": "OPERATIONAL"
    },
    {
      "place_id": "ChIJeaH6ckTZYpYRDCmk_EnDnII",
      "name": "Supermercado Lider",
      "address": "Av. San José 69, local 1, San Bernardo",
      "lat": -33.597705,
      "lon": -70.6994398,
      "rating": 4,
      "user_ratings_total": 7488,
      "types": [
        "supermarket",
        "grocery_or_supermarket",
        "food",
        "point_of_interest",
        "store",
        "establishment"
      ],
      "business_status": "OPERATIONAL"
    },
    {
      "place_id": "ChIJqSwdDIDHYpYRcr9UitM_w6Y",
      "name": "Supermercado Lider",
      "address": "Av. Recoleta 3501, Recoleta",
      "lat": -33.3933778,
      "lon": -70.64125969999999,
      "rating": 3.9,
      "user_ratings_total": 8158,
      "types": [
        "supermarket",
        "grocery_or_supermarket",
        "food",
        "point_of_interest",
        "store",
        "establishment"
      ],
      "business_status": "OPERATIONAL"
    },
    {
      "place_id": "ChIJt3zYX03aYpYRtFPZKg86KNM",
      "name": "Supermercado Lider",
      "address": "Riquelme 69, El Bosque",
      "lat": -33.5463575,
      "lon": -70.6675582,
      "rating": 3.9,
      "user_ratings_total": 7845,
      "types": [
        "supermarket",
        "grocery_or_supermarket",
        "food",
        "point_of_interest",
        "store",
        "establishment"
      ],
      "business_status": "OPERATIONAL"
    },
    {
      "place_id": "ChIJ8cqX16fdYpYRWUOp-zjm-6w",
      "name": "Supermercado Lider",
      "address": "Av. 3 Pte. N° 900, Maipú",
      "lat": -33.5281658,
      "lon": -70.77784439999999,
      "rating": 4,
      "user_ratings_total": 5751,
      "types": [
        "supermarket",
        "grocery_or_supermarket",
        "food",
        "point_of_interest",
        "store",
        "establishment"
      ],
      "business_status": "OPERATIONAL"
    },
    {
      "place_id": "ChIJq8nxpY7GYpYREP8UqLbyMNc",
      "name": "Supermercado Lider",
      "address": "Av. Independencia 4142, Conchalí",
      "lat": -33.3909561,
      "lon": -70.67592069999999,
      "rating": 4,
      "user_ratings_total": 8072,
      "types": [
        "supermarket",
        "grocery_or_supermarket",
        "food",
        "point_of_interest",
        "store",
        "establishment"
      ],
      "business_status": "OPERATIONAL"
    },
    {
      "place_id": "ChIJwZY5ig7bYpYRVq-AL1NjBgE",
      "name": "Supermercado Lider",
      "address": "Av. Ochagavia 13115, San Bernardo",
      "lat": -33.5721709,
      "lon": -70.7016365,
      "rating": 4.5,
      "user_ratings_total": 388,
      "types": [
        "supermarket",
        "grocery_or_supermarket",
        "food",
        "point_of_interest",
        "store",
        "establishment"
      ],
      "business_status": "OPERATIONAL"
    },
    {
      "place_id": "ChIJ49TSb9nHYpYRgGDnN_zkzuI",
      "name": "Supermercado Lider",
      "address": "Av. Américo Vespucio 1737, Huechuraba",
      "lat": -33.364115,
      "lon": -70.6793469,
      "rating": 4.1,
      "user_ratings_total": 6773,
      "types": [
        "supermarket",
        "grocery_or_supermarket",
        "food",
        "point_of_interest",
        "store",
        "establishment"
      ],
      "business_status": "OPERATIONAL"
    },
    {
      "place_id": "ChIJLdZ_1nzDYpYRqrDpM_FP1Ww",
      "name": "Supermercado Lider",
      "address": "Libertador Bernardo O'Higgins 807, Talagante",
      "lat": -33.6623746,
      "lon": -70.9252406,
      "rating": 4,
      "user_ratings_total": 4523,
      "types": [
        "supermarket",
        "grocery_or_supermarket",
        "food",
        "point_of_interest",
        "store",
        "establishment"
      ],
      "business_status": "OPERATIONAL"
    },
    {
      "place_id": "ChIJ0wKaFejaYpYRTvBdkZtXKj8",
      "name": "Supermercado Lider",
      "address": "Gran Av. José Miguel Carrera 6150, San Miguel",
      "lat": -33.5122162,
      "lon": -70.6568108,
      "rating": 4.1,
      "user_ratings_total": 14867,
      "types": [
        "supermarket",
        "grocery_or_supermarket",
        "food",
        "point_of_interest",
        "store",
        "establishment"
      ],
      "business_status": "OPERATIONAL"
    },
    {
      "place_id": "ChIJq32o_3DOYpYRF6YTYxOZctI",
      "name": "Supermercado Lider",
      "address": "Av. Príncipe de Gales 9140, La Reina",
      "lat": -33.4405554,
      "lon": -70.5349834,
      "rating": 4.3,
      "user_ratings_total": 4138,
      "types": [
        "supermarket",
        "grocery_or_supermarket",
        "food",
        "point_of_interest",
        "store",
        "establishment"
      ],
      "business_status": "OPERATIONAL"
    },
    {
      "place_id": "ChIJ1VogNP3nYpYRCKScXayv9wM",
      "name": "Supermercado Lider",
      "address": "Av. Balmaceda 684, Penaflor, Peñaflor",
      "lat": -33.6088135,
      "lon": -70.8554448,
      "rating": 4.2,
      "user_ratings_total": 4385,
      "types": [
        "supermarket",
        "grocery_or_supermarket",
        "food",
        "point_of_interest",
        "store",
        "establishment"
      ],
      "business_status": "OPERATIONAL"
    },
    {
      "place_id": "ChIJGxcPOPDLYpYRlCImtfubmLs",
      "name": "Supermercado Lider",
      "address": "Av. Las Condes 12916, Lo Barnechea",
      "lat": -33.3706813,
      "lon": -70.51228619999999,
      "rating": 4.2,
      "user_ratings_total": 7403,
      "types": [
        "supermarket",
        "grocery_or_supermarket",
        "food",
        "point_of_interest",
        "store",
        "establishment"
      ],
      "business_status": "OPERATIONAL"
    },
    {
      "place_id": "ChIJwT3UA27aYpYRUJC5gIa0dHs",
      "name": "Supermercado Lider",
      "address": "Av. Sta. Rosa 9233, La Granja, San Ramón",
      "lat": -33.5455149,
      "lon": -70.6345053,
      "rating": 3.8,
      "user_ratings_total": 6473,
      "types": [
        "supermarket",
        "grocery_or_supermarket",
        "food",
        "point_of_interest",
        "store",
        "establishment"
      ],
      "business_status": "OPERATIONAL"
    },
    {
      "place_id": "ChIJo_BhbxjMYpYR5FXfHflss34",
      "name": "Supermercado Lider",
      "address": "Cam. El Alba 11865, Las Condes",
      "lat": -33.4019589,
      "lon": -70.5160599,
      "rating": 4.4,
      "user_ratings_total": 5207,
      "types": [
        "supermarket",
        "grocery_or_supermarket",
        "food",
        "point_of_interest",
        "store",
        "establishment"
      ],
      "business_status": "OPERATIONAL"
    },
    {
      "place_id": "ChIJH5hefGfQYpYR1Zke0uRuLy8",
      "name": "Supermercado Lider",
      "address": "Froilán Roa 7107, Local 64, La Florida",
      "lat": -33.5175026,
      "lon": -70.5966375,
      "rating": 4,
      "user_ratings_total": 5212,
      "types": [
        "supermarket",
        "grocery_or_supermarket",
        "food",
        "point_of_interest",
        "store",
        "establishment"
      ],
      "business_status": "OPERATIONAL"
    },
    {
      "place_id": "ChIJnafObDtVYpYREFCn7zpastw",
      "name": "Supermercado Lider",
      "address": "Av. Vicuña Mackenna 110, Melipilla",
      "lat": -33.6805487,
      "lon": -71.20353279999999,
      "rating": 4.1,
      "user_ratings_total": 5051,
      "types": [
        "supermarket",
        "grocery_or_supermarket",
        "food",
        "point_of_interest",
        "store",
        "establishment"
      ],
      "business_status": "OPERATIONAL"
    },
    {
      "place_id": "ChIJ2dowmr7BYpYR2Shf7a6wByQ",
      "name": "Supermercado Lider",
      "address": "Av. Miraflores 8412, Renca",
      "lat": -33.3995694,
      "lon": -70.7582971,
      "rating": 4.2,
      "user_ratings_total": 4361,
      "types": [
        "supermarket",
        "grocery_or_supermarket",
        "food",
        "point_of_interest",
        "store",
        "establishment"
      ],
      "business_status": "OPERATIONAL"
    },
    {
      "place_id": "ChIJ0wTwgkjEYpYR_BlXbhjWJCQ",
      "name": "Lider Matucana",
      "address": "Av. Matucana 1202, Quinta Normal",
      "lat": -33.4322996,
      "lon": -70.6810726,
      "rating": 4,
      "user_ratings_total": 9562,
      "types": [
        "supermarket",
        "grocery_or_supermarket",
        "food",
        "point_of_interest",
        "store",
        "establishment"
      ],
      "business_status": "OPERATIONAL"
    },
    {
      "place_id": "ChIJiTp3BwDDYpYRht2tyThmDFw",
      "name": "Supermercado Lider",
      "address": "Cam. la Farfana 1400, Santiago, Maipú",
      "lat": -33.4909549,
      "lon": -70.7713837,
      "rating": 4.6,
      "user_ratings_total": 34,
      "types": [
        "supermarket",
        "grocery_or_supermarket",
        "food",
        "point_of_interest",
        "store",
        "establishment"
      ],
      "business_status": "OPERATIONAL"
    },
    {
      "place_id": "ChIJcwypy_HWYpYR_nE-c3b3cyU",
      "name": "Líder Express México",
      "address": "Av. México 1589, Puente Alto",
      "lat": -33.5939598,
      "lon": -70.5589523,
      "rating": 4.1,
      "user_ratings_total": 3677,
      "types": [
        "supermarket",
        "grocery_or_supermarket",
        "food",
        "point_of_interest",
        "store",
        "establishment"
      ],
      "business_status": "OPERATIONAL"
    },
    {
      "place_id": "ChIJmbk4cJHPYpYReCw3IzgyWfI",
      "name": "Líder Express Ñuñoa",
      "address": "Av. Irarrázaval Av. 2410, Ñuñoa",
      "lat": -33.4543081,
      "lon": -70.60638159999999,
      "rating": 4.2,
      "user_ratings_total": 4468,
      "types": [
        "supermarket",
        "grocery_or_supermarket",
        "food",
        "point_of_interest",
        "store",
        "establishment"
      ],
      "business_status": "OPERATIONAL"
    },
    {
      "place_id": "ChIJXadGg2PFYpYR_FBdPuIHTLQ",
      "name": "Express de Lider",
      "address": "Av. Grecia 245, Ñuñoa",
      "lat": -33.455821,
      "lon": -70.6269026,
      "rating": 4.2,
      "user_ratings_total": 5876,
      "types": [
        "supermarket",
        "grocery_or_supermarket",
        "food",
        "point_of_interest",
        "store",
        "establishment"
      ],
      "business_status": "OPERATIONAL"
    },
    {
      "place_id": "ChIJFYEM01TWYpYRlReYhVaA9fg",
      "name": "Líder Express Puente Alto",
      "address": "José Luis Coo 0158, Puente Alto",
      "lat": -33.6088915,
      "lon": -70.5740629,
      "rating": 3.8,
      "user_ratings_total": 796,
      "types": [
        "supermarket",
        "grocery_or_supermarket",
        "food",
        "point_of_interest",
        "store",
        "establishment"
      ],
      "business_status": "OPERATIONAL"
    },
    {
      "place_id": "ChIJRXaNNbXPYpYRlnvP6qabeVY",
      "name": "Líder Express Plaza Egaña",
      "address": "Av. Irarrázaval 5353, Ñuñoa",
      "lat": -33.4537001,
      "lon": -70.574815,
      "rating": 4.2,
      "user_ratings_total": 3264,
      "types": [
        "supermarket",
        "grocery_or_supermarket",
        "food",
        "point_of_interest",
        "store",
        "establishment"
      ],
      "business_status": "OPERATIONAL"
    },
    {
      "place_id": "ChIJVUY1LgvJYpYRCCWCaArDWLM",
      "name": "Líder Express Pie Andino",
      "address": "Av. Paseo Pie Andino 5800, Lo Barnechea",
      "lat": -33.3239416,
      "lon": -70.53851159999999,
      "rating": 4.4,
      "user_ratings_total": 126,
      "types": [
        "supermarket",
        "grocery_or_supermarket",
        "food",
        "point_of_interest",
        "store",
        "establishment"
      ],
      "business_status": "OPERATIONAL"
    },
    {
      "place_id": "ChIJZ9Sib-3OYpYR0TZiwwDbSqE",
      "name": "Líder Express Colón",
      "address": "Av.Presidente Sebastián Piñera Echenique 1016, Las Condes",
      "lat": -33.4183467,
      "lon": -70.5518444,
      "rating": 4,
      "user_ratings_total": 2946,
      "types": [
        "supermarket",
        "grocery_or_supermarket",
        "food",
        "point_of_interest",
        "store",
        "establishment"
      ],
      "business_status": "OPERATIONAL"
    },
    {
      "place_id": "ChIJg0ngpKTFYpYR54TbGPxK3RY",
      "name": "Express de Lider",
      "address": "Santo Domingo 1031, Santiago",
      "lat": -33.436131,
      "lon": -70.65194009999999,
      "rating": 4,
      "user_ratings_total": 5806,
      "types": [
        "supermarket",
        "grocery_or_supermarket",
        "food",
        "point_of_interest",
        "store",
        "establishment"
      ],
      "business_status": "OPERATIONAL"
    },
    {
      "place_id": "ChIJv33B2d7XYpYRGuN5xJtJ7hc",
      "name": "Express de Lider",
      "address": "Av. Diego Portales 06303, Puente Alto",
      "lat": -33.5597148,
      "lon": -70.5514969,
      "rating": 4,
      "user_ratings_total": 2849,
      "types": [
        "supermarket",
        "grocery_or_supermarket",
        "food",
        "point_of_interest",
        "store",
        "establishment"
      ],
      "business_status": "OPERATIONAL"
    },
    {
      "place_id": "ChIJ85WoZS_QYpYRalTZYB_EiZI",
      "name": "Líder Express Ramón Cruz",
      "address": "Ramón Cruz Montt 3219, Macul",
      "lat": -33.4847809,
      "lon": -70.58539549999999,
      "rating": 3.9,
      "user_ratings_total": 889,
      "types": [
        "supermarket",
        "grocery_or_supermarket",
        "food",
        "point_of_interest",
        "store",
        "establishment"
      ],
      "business_status": "OPERATIONAL"
    },
    {
      "place_id": "ChIJ3V7GgajFYpYRtbSlPJiZ5m8",
      "name": "Express de Lider",
      "address": "San Martín 35, Santiago",
      "lat": -33.4442427,
      "lon": -70.6569361,
      "rating": 4.2,
      "user_ratings_total": 5692,
      "types": [
        "supermarket",
        "grocery_or_supermarket",
        "food",
        "point_of_interest",
        "store",
        "establishment"
      ],
      "business_status": "OPERATIONAL"
    },
    {
      "place_id": "ChIJ3Zodb7HPYpYRgP_6Fu1VkCI",
      "name": "Líder Express Coventry",
      "address": "Coventry 601, Ñuñoa",
      "lat": -33.4486356,
      "lon": -70.5805036,
      "rating": 3.7,
      "user_ratings_total": 1131,
      "types": [
        "supermarket",
        "grocery_or_supermarket",
        "food",
        "point_of_interest",
        "store",
        "establishment"
      ],
      "business_status": "OPERATIONAL"
    },
    {
      "place_id": "ChIJP90IYg_FYpYRdJsq_jQZwvg",
      "name": "Express de Lider",
      "address": "Diez de Julio 1625, Santiago",
      "lat": -33.4541511,
      "lon": -70.6572494,
      "rating": 4.1,
      "user_ratings_total": 8084,
      "types": [
        "supermarket",
        "grocery_or_supermarket",
        "food",
        "point_of_interest",
        "store",
        "establishment"
      ],
      "business_status": "OPERATIONAL"
    },
    {
      "place_id": "ChIJL1TQ3T4hY5YRJJzCoKRw8EY",
      "name": "Express de Lider",
      "address": "San Martín 555, Buin",
      "lat": -33.7363243,
      "lon": -70.73690789999999,
      "rating": 4.3,
      "user_ratings_total": 2585,
      "types": [
        "supermarket",
        "grocery_or_supermarket",
        "food",
        "point_of_interest",
        "store",
        "establishment"
      ],
      "business_status": "OPERATIONAL"
    },
    {
      "place_id": "ChIJz803v83AYpYR0ajGSxszzV0",
      "name": "Express de Lider",
      "address": "Av. lo Cruzat 281, Local 3, Quilicura",
      "lat": -33.358319,
      "lon": -70.721289,
      "rating": 4,
      "user_ratings_total": 1115,
      "types": [
        "supermarket",
        "grocery_or_supermarket",
        "food",
        "point_of_interest",
        "store",
        "establishment"
      ],
      "business_status": "OPERATIONAL"
    },
    {
      "place_id": "ChIJQU9DfDTbYpYRWRRSsbug7KE",
      "name": "Express de Líder",
      "address": "Av. Central 5960, Pedro Aguirre Cerda",
      "lat": -33.4979916,
      "lon": -70.68769979999999,
      "rating": 3.8,
      "user_ratings_total": 743,
      "types": [
        "supermarket",
        "grocery_or_supermarket",
        "food",
        "point_of_interest",
        "store",
        "establishment"
      ],
      "business_status": "OPERATIONAL"
    },
    {
      "place_id": "ChIJn802gCvBYpYRbvRiQe6ZuRo",
      "name": "Express de Lider",
      "address": "Av. Américo Vespucio 1651, Quilicura",
      "lat": -33.3744509,
      "lon": -70.7187618,
      "rating": 4.4,
      "user_ratings_total": 2230,
      "types": [
        "supermarket",
        "grocery_or_supermarket",
        "food",
        "point_of_interest",
        "store",
        "establishment"
      ],
      "business_status": "OPERATIONAL"
    },
    {
      "place_id": "ChIJDylAekjDYpYRF0yoG8pKa9c",
      "name": "Express de Líder",
      "address": "Primo de Rivera 1447, Santiago, Maipú",
      "lat": -33.4928714,
      "lon": -70.7383531,
      "rating": 3.7,
      "user_ratings_total": 946,
      "types": [
        "supermarket",
        "grocery_or_supermarket",
        "food",
        "point_of_interest",
        "store",
        "establishment"
      ],
      "business_status": "OPERATIONAL"
    },
    {
      "place_id": "ChIJ6yrFl5jFYpYRHwRv17s0og8",
      "name": "Express de Lider",
      "address": "Merced 560, Santiago",
      "lat": -33.4379903,
      "lon": -70.6447044,
      "rating": 4.2,
      "user_ratings_total": 8048,
      "types": [
        "supermarket",
        "grocery_or_supermarket",
        "food",
        "point_of_interest",
        "store",
        "establishment"
      ],
      "business_status": "OPERATIONAL"
    },
    {
      "place_id": "ChIJP8g10MPdiZYRAbyVBQUFTVo",
      "name": "Supermercado Lider",
      "address": "Av. Benidorm 961, Viña del Mar",
      "lat": -33.0067417,
      "lon": -71.54513229999999,
      "rating": 4.2,
      "user_ratings_total": 10583,
      "types": [
        "supermarket",
        "grocery_or_supermarket",
        "store",
        "food",
        "point_of_interest",
        "establishment"
      ],
      "business_status": "OPERATIONAL"
    },
    {
      "place_id": "ChIJfcDkt7rXiZYRU1iEFbagdyo",
      "name": "Supermercado Lider",
      "address": "Manuel Montt 1561, Villa Alemana",
      "lat": -33.0475004,
      "lon": -71.348289,
      "rating": 4.4,
      "user_ratings_total": 6465,
      "types": [
        "supermarket",
        "grocery_or_supermarket",
        "store",
        "food",
        "point_of_interest",
        "establishment"
      ],
      "business_status": "OPERATIONAL"
    },
    {
      "place_id": "ChIJRwhh6QfZiZYRVa_Mvp2RNjc",
      "name": "Lider",
      "address": "Ramón, Freire 1351, Quilpué",
      "lat": -33.0454607,
      "lon": -71.41856829999999,
      "rating": 4.2,
      "user_ratings_total": 9173,
      "types": [
        "supermarket",
        "grocery_or_supermarket",
        "store",
        "food",
        "point_of_interest",
        "establishment"
      ],
      "business_status": "OPERATIONAL"
    },
    {
      "place_id": "ChIJF65OVijhiZYRBvHKSpxh7pg",
      "name": "Express de Lider",
      "address": "Av. Brasil 1303, Valparaíso",
      "lat": -33.043621,
      "lon": -71.6225051,
      "rating": 3.9,
      "user_ratings_total": 6007,
      "types": [
        "supermarket",
        "grocery_or_supermarket",
        "store",
        "food",
        "point_of_interest",
        "establishment"
      ],
      "business_status": "OPERATIONAL"
    },
    {
      "place_id": "ChIJTVyZgMXgiZYRdIbOjH8xhmU",
      "name": "Jumbo",
      "address": "Av. Argentina 51, Valparaíso",
      "lat": -33.044211,
      "lon": -71.60473,
      "rating": 4.3,
      "user_ratings_total": 11738,
      "types": [
        "supermarket",
        "grocery_or_supermarket",
        "store",
        "food",
        "point_of_interest",
        "establishment"
      ],
      "business_status": "OPERATIONAL"
    },
    {
      "place_id": "ChIJC0VduVzfiZYR3sEfJYAgT18",
      "name": "Express de Lider",
      "address": "Av. Valparaíso 1070, Viña del Mar",
      "lat": -33.0260657,
      "lon": -71.54734909999999,
      "rating": 4.2,
      "user_ratings_total": 3829,
      "types": [
        "supermarket",
        "grocery_or_supermarket",
        "store",
        "food",
        "point_of_interest",
        "establishment"
      ],
      "business_status": "OPERATIONAL"
    },
    {
      "place_id": "ChIJzaKXHFXZiZYRfVyPZL4FmDM",
      "name": "Lider Express",
      "address": "Av. Los Carrera 754, Quilpué",
      "lat": -33.0483414,
      "lon": -71.44252689999999,
      "rating": 4.4,
      "user_ratings_total": 281,
      "types": [
        "supermarket",
        "grocery_or_supermarket",
        "store",
        "food",
        "point_of_interest",
        "establishment"
      ],
      "business_status": "OPERATIONAL"
    },
    {
      "place_id": "ChIJ9ZSYwOLdiZYRrCsEhb4Hnkk",
      "name": "Express de Lider Viña del Mar",
      "address": "Av. Valparaíso 239, Viña del Mar",
      "lat": -33.0239254,
      "lon": -71.56038,
      "rating": 4.1,
      "user_ratings_total": 4105,
      "types": [
        "supermarket",
        "grocery_or_supermarket",
        "store",
        "food",
        "point_of_interest",
        "establishment"
      ],
      "business_status": "OPERATIONAL"
    },
    {
      "place_id": "ChIJK7WV0kh1YpYR9BvYXVZf5e8",
      "name": "Express de Lider",
      "address": "Av. Curauma Nte. 2961, Curauma, Valparaíso",
      "lat": -33.1294543,
      "lon": -71.56319900000001,
      "rating": 4.1,
      "user_ratings_total": 2847,
      "types": [
        "supermarket",
        "grocery_or_supermarket",
        "store",
        "food",
        "point_of_interest",
        "establishment"
      ],
      "business_status": "OPERATIONAL"
    },
    {
      "place_id": "ChIJd5kZDYPXiZYRMnZy157HeQk",
      "name": "Express Villa Alemana I",
      "address": "Av. Valparaíso 601, Valparaíso, Villa Alemana",
      "lat": -33.0442607,
      "lon": -71.372937,
      "rating": 4.1,
      "user_ratings_total": 2830,
      "types": [
        "supermarket",
        "grocery_or_supermarket",
        "store",
        "food",
        "point_of_interest",
        "establishment"
      ],
      "business_status": "OPERATIONAL"
    },
    {
      "place_id": "ChIJUSEAStjgiZYRf326UrxN_sU",
      "name": "Express de Lider Pedromontt",
      "address": "Region V of - Las Heras, Valparaíso",
      "lat": -33.0467112,
      "lon": -71.6173258,
      "rating": 4.1,
      "user_ratings_total": 3505,
      "types": [
        "supermarket",
        "grocery_or_supermarket",
        "store",
        "food",
        "point_of_interest",
        "establishment"
      ],
      "business_status": "OPERATIONAL"
    },
    {
      "place_id": "ChIJtyq2KjTdiZYRAMoWfTEhZ2s",
      "name": "Express de Lider",
      "address": "Las Hiedras 765, Concón",
      "lat": -32.9439958,
      "lon": -71.5457753,
      "rating": 4.2,
      "user_ratings_total": 2707,
      "types": [
        "supermarket",
        "grocery_or_supermarket",
        "store",
        "food",
        "point_of_interest",
        "establishment"
      ],
      "business_status": "OPERATIONAL"
    },
    {
      "place_id": "ChIJ5arX0MjhiZYR37ftbCiCjYQ",
      "name": "Minimarket Concepción",
      "address": "Urriola 411, Valparaíso",
      "lat": -33.0410518,
      "lon": -71.6281623,
      "rating": 4.3,
      "user_ratings_total": 11,
      "types": [
        "supermarket",
        "grocery_or_supermarket",
        "store",
        "food",
        "point_of_interest",
        "establishment"
      ],
      "business_status": "CLOSED_TEMPORARILY"
    },
    {
      "place_id": "ChIJv5fX1UA1aJYR_NyeoIcM-5k",
      "name": "Express de Lider Colón",
      "address": "esq Av. Colón, Morris, Valparaíso",
      "lat": -33.0503852,
      "lon": -71.6091541,
      "rating": 4.2,
      "user_ratings_total": 2146,
      "types": [
        "supermarket",
        "grocery_or_supermarket",
        "store",
        "food",
        "point_of_interest",
        "establishment"
      ],
      "business_status": "OPERATIONAL"
    },
    {
      "place_id": "ChIJizVD8YneiZYR88nX8DpJn9Y",
      "name": "Jumbo",
      "address": "1 Nte. 2901, Viña del Mar",
      "lat": -33.035302,
      "lon": -71.523578,
      "rating": 4.4,
      "user_ratings_total": 13938,
      "types": [
        "supermarket",
        "grocery_or_supermarket",
        "store",
        "food",
        "point_of_interest",
        "establishment"
      ],
      "business_status": "OPERATIONAL"
    },
    {
      "place_id": "ChIJL9zzdubdiZYR8VUbXH7m2ms",
      "name": "Unimarc",
      "address": "4 Pte. 630, Viña del Mar",
      "lat": -33.015667,
      "lon": -71.5543395,
      "rating": 4,
      "user_ratings_total": 2081,
      "types": [
        "supermarket",
        "grocery_or_supermarket",
        "store",
        "food",
        "point_of_interest",
        "establishment"
      ],
      "business_status": "OPERATIONAL"
    },
    {
      "place_id": "ChIJD--vZL3XiZYRZ71-MTG_S4I",
      "name": "Santa Isabel",
      "address": "Bernardo Leigthon 71, Villa Alemana",
      "lat": -33.0471744,
      "lon": -71.3533271,
      "rating": 4.1,
      "user_ratings_total": 2444,
      "types": [
        "supermarket",
        "grocery_or_supermarket",
        "store",
        "food",
        "point_of_interest",
        "establishment"
      ],
      "business_status": "OPERATIONAL"
    },
    {
      "place_id": "ChIJKYmby7rXiZYRwwAtThJzgjQ",
      "name": "Walmart Local 457",
      "address": "Villa Alemana",
      "lat": -33.0475783,
      "lon": -71.3485953,
      "rating": 4.4,
      "user_ratings_total": 101,
      "types": [
        "supermarket",
        "grocery_or_supermarket",
        "store",
        "food",
        "point_of_interest",
        "establishment"
      ],
      "business_status": "OPERATIONAL"
    },
    {
      "place_id": "ChIJdQcjyS7ZiZYRfN_VCwZz2pQ",
      "name": "Express de Lider",
      "address": "Arneb 2520, Villa Alemana",
      "lat": -33.0586284,
      "lon": -71.3956539,
      "rating": 4.3,
      "user_ratings_total": 124,
      "types": [
        "supermarket",
        "grocery_or_supermarket",
        "store",
        "food",
        "point_of_interest",
        "establishment"
      ],
      "business_status": "OPERATIONAL"
    },
    {
      "place_id": "ChIJMyYpLkrhiZYRUrSUhFJMLQk",
      "name": "SuperBodega aCuenta",
      "address": "Luis Guevara Ortuzar 1960, Playa Ancha, Valparaíso",
      "lat": -33.044012,
      "lon": -71.64651549999999,
      "rating": 4,
      "user_ratings_total": 2060,
      "types": [
        "supermarket",
        "grocery_or_supermarket",
        "store",
        "food",
        "point_of_interest",
        "establishment"
      ],
      "business_status": "OPERATIONAL"
    },
    {
      "place_id": "ChIJ78Om7kt1YpYRog28r7c2Zzk",
      "name": "Santa Isabel",
      "address": "Av. Cardenal Samoré 2335, Curauma, Valparaíso",
      "lat": -33.1308082,
      "lon": -71.56544029999999,
      "rating": 4.1,
      "user_ratings_total": 3482,
      "types": [
        "supermarket",
        "grocery_or_supermarket",
        "point_of_interest",
        "food",
        "store",
        "establishment"
      ],
      "business_status": "OPERATIONAL"
    },
    {
      "place_id": "ChIJg9dDsjXdiZYR7K_zzqKryI4",
      "name": "Jumbo",
      "address": "Av. Concón Reñaca 3850, Concón",
      "lat": -32.9392933,
      "lon": -71.5462742,
      "rating": 4.4,
      "user_ratings_total": 7331,
      "types": [
        "supermarket",
        "grocery_or_supermarket",
        "point_of_interest",
        "food",
        "store",
        "establishment"
      ],
      "business_status": "OPERATIONAL"
    },
    {
      "place_id": "ChIJ-T1jKbfdiZYRUuUArXkacwI",
      "name": "KOMBI store",
      "address": "7 Nte. 499, Valparaíso, Viña del Mar",
      "lat": -33.0158705,
      "lon": -71.5528917,
      "rating": 4.2,
      "user_ratings_total": 25,
      "types": [
        "supermarket",
        "grocery_or_supermarket",
        "point_of_interest",
        "food",
        "store",
        "establishment"
      ],
      "business_status": "OPERATIONAL"
    },
    {
      "place_id": "ChIJ--WgfwxvYpYRfQ90fS8_mIA",
      "name": "SuperBodega aCuenta",
      "address": "Av. Constitución 793, Casablanca",
      "lat": -33.3114349,
      "lon": -71.40953309999999,
      "rating": 4.1,
      "user_ratings_total": 1009,
      "types": [
        "supermarket",
        "grocery_or_supermarket",
        "point_of_interest",
        "food",
        "store",
        "establishment"
      ],
      "business_status": "OPERATIONAL"
    },
    {
      "place_id": "ChIJ7cXynizDiZYR-Dtx4P1ubho",
      "name": "Santa Isabel",
      "address": "Av Los Manantiales, Los Manantiales 1021, Concón",
      "lat": -32.9306717,
      "lon": -71.5190645,
      "rating": 4,
      "user_ratings_total": 2523,
      "types": [
        "supermarket",
        "grocery_or_supermarket",
        "point_of_interest",
        "food",
        "store",
        "establishment"
      ],
      "business_status": "OPERATIONAL"
    },
    {
      "place_id": "ChIJmXjUn6vBiZYRvr4V3k0Qo7M",
      "name": "Unimarc",
      "address": "Estrella de Chile 169, Quintero",
      "lat": -32.785383,
      "lon": -71.5270486,
      "rating": 3.8,
      "user_ratings_total": 3471,
      "types": [
        "supermarket",
        "grocery_or_supermarket",
        "point_of_interest",
        "food",
        "store",
        "establishment"
      ],
      "business_status": "OPERATIONAL"
    },
    {
      "place_id": "ChIJL_pi6endiZYRCN6ObAcZ8Ws",
      "name": "Santa Isabel",
      "address": "Av. Libertad 1348, Local 305, Viña del Mar",
      "lat": -33.0085372,
      "lon": -71.54798880000001,
      "rating": 4.1,
      "user_ratings_total": 1266,
      "types": [
        "supermarket",
        "grocery_or_supermarket",
        "point_of_interest",
        "food",
        "store",
        "establishment"
      ],
      "business_status": "OPERATIONAL"
    },
    {
      "place_id": "ChIJG8u8SSzeiZYRkppQGuCv-Gk",
      "name": "SuperBodega aCuenta",
      "address": "Av. Juan Pablo II, Rodelillo, Valparaíso",
      "lat": -33.0653263,
      "lon": -71.5640574,
      "rating": 4.1,
      "user_ratings_total": 1507,
      "types": [
        "supermarket",
        "grocery_or_supermarket",
        "point_of_interest",
        "food",
        "store",
        "establishment"
      ],
      "business_status": "OPERATIONAL"
    },
    {
      "place_id": "ChIJA7eqZKzZiZYREfObznRaM_Q",
      "name": "Jumbo",
      "address": "Av. Ramón Freire 1851, Quilpué",
      "lat": -33.045357,
      "lon": -71.422736,
      "rating": 4.4,
      "user_ratings_total": 7065,
      "types": [
        "supermarket",
        "grocery_or_supermarket",
        "point_of_interest",
        "food",
        "store",
        "establishment"
      ],
      "business_status": "OPERATIONAL"
    },
    {
      "place_id": "ChIJmytp1yDYiZYR5KcYib1sT0I",
      "name": "SuperBodega aCuenta",
      "address": "Pje. Huanhuali 1496, Villa Alemana",
      "lat": -33.0584499,
      "lon": -71.38613289999999,
      "rating": 4.2,
      "user_ratings_total": 2943,
      "types": [
        "supermarket",
        "grocery_or_supermarket",
        "point_of_interest",
        "food",
        "store",
        "establishment"
      ],
      "business_status": "OPERATIONAL"
    },
    {
      "place_id": "ChIJHZbBLd_ZiZYRBEeMnBijsYY",
      "name": "Central Mayorista",
      "address": "Freire 1351, Quilpué",
      "lat": -33.0469659,
      "lon": -71.418753,
      "rating": 4.3,
      "user_ratings_total": 486,
      "types": [
        "supermarket",
        "grocery_or_supermarket",
        "point_of_interest",
        "food",
        "store",
        "establishment"
      ],
      "business_status": "OPERATIONAL"
    },
    {
      "place_id": "ChIJ2y1QIzXYiZYRIfanrLzNnHg",
      "name": "Santa Isabel",
      "address": "Freire 496, Quilpué",
      "lat": -33.046062,
      "lon": -71.4039133,
      "rating": 4.1,
      "user_ratings_total": 2146,
      "types": [
        "supermarket",
        "grocery_or_supermarket",
        "point_of_interest",
        "food",
        "store",
        "establishment"
      ],
      "business_status": "OPERATIONAL"
    },
    {
      "place_id": "ChIJweMYha3ZiZYRZ4ZOXx2HhPg",
      "name": "Super 10",
      "address": "Baden Powell 36, Quilpué",
      "lat": -33.0439791,
      "lon": -71.41827440000002,
      "rating": 4.1,
      "user_ratings_total": 1947,
      "types": [
        "supermarket",
        "grocery_or_supermarket",
        "point_of_interest",
        "food",
        "store",
        "establishment"
      ],
      "business_status": "OPERATIONAL"
    },
    {
      "place_id": "ChIJjUeTP4PXiZYRmGWBBv7X73I",
      "name": "Santa Isabel",
      "address": "Av. Valparaíso 569, Villa Alemana",
      "lat": -33.0445087,
      "lon": -71.3724579,
      "rating": 4.1,
      "user_ratings_total": 3624,
      "types": [
        "supermarket",
        "grocery_or_supermarket",
        "point_of_interest",
        "food",
        "store",
        "establishment"
      ],
      "business_status": "OPERATIONAL"
    },
    {
      "place_id": "ChIJqRpWhK3ZiZYRp8FTM2KoBJY",
      "name": "Alvi",
      "address": "Freire 1515, Quilpué",
      "lat": -33.0444424,
      "lon": -71.4174567,
      "rating": 4.2,
      "user_ratings_total": 1159,
      "types": [
        "grocery_or_supermarket",
        "supermarket",
        "point_of_interest",
        "food",
        "store",
        "establishment"
      ],
      "business_status": "OPERATIONAL"
    },
    {
      "place_id": "ChIJx21qI9vgiZYRv1IS9Up-8gw",
      "name": "Super 10",
      "address": "Pedro Montt 2585, Valparaíso",
      "lat": -33.0472444,
      "lon": -71.6092042,
      "rating": 4,
      "user_ratings_total": 1632,
      "types": [
        "supermarket",
        "grocery_or_supermarket",
        "point_of_interest",
        "food",
        "store",
        "establishment"
      ],
      "business_status": "OPERATIONAL"
    },
    {
      "place_id": "ChIJJ3-FkebdiZYRRftZ7IXaofY",
      "name": "SuperBodega aCuenta",
      "address": "Calle Estero Maitenlahue, Reñaca 925, Viña del Mar",
      "lat": -32.9957936,
      "lon": -71.5002257,
      "rating": 4.2,
      "user_ratings_total": 495,
      "types": [
        "supermarket",
        "grocery_or_supermarket",
        "point_of_interest",
        "food",
        "store",
        "establishment"
      ],
      "business_status": "OPERATIONAL"
    },
    {
      "place_id": "ChIJucsSXZHgiZYR_H2XLwu5188",
      "name": "Santa Isabel",
      "address": "Jorge Kenrick 35, Valparaíso",
      "lat": -33.0591735,
      "lon": -71.586975,
      "rating": 4.2,
      "user_ratings_total": 1919,
      "types": [
        "supermarket",
        "grocery_or_supermarket",
        "point_of_interest",
        "food",
        "store",
        "establishment"
      ],
      "business_status": "OPERATIONAL"
    },
    {
      "place_id": "ChIJ7xmvklfAiZYRO6qDF6vaSGQ",
      "name": "Unimarc",
      "address": "Av. Normandie 2680, Quintero",
      "lat": -32.7923382,
      "lon": -71.52718759999999,
      "rating": 3.9,
      "user_ratings_total": 377,
      "types": [
        "supermarket",
        "grocery_or_supermarket",
        "point_of_interest",
        "food",
        "store",
        "establishment"
      ],
      "business_status": "OPERATIONAL"
    },
    {
      "place_id": "ChIJebQDISTYiZYRdJO74a7HqnU",
      "name": "Santa Isabel",
      "address": "C. Alcalde Rodolfo Galleguillos 1099, Villa Alemana",
      "lat": -33.057375,
      "lon": -71.388623,
      "rating": 4.2,
      "user_ratings_total": 1510,
      "types": [
        "supermarket",
        "grocery_or_supermarket",
        "point_of_interest",
        "food",
        "store",
        "establishment"
      ],
      "business_status": "OPERATIONAL"
    },
    {
      "place_id": "ChIJjd48TNjgiZYR6Ypyto5cNKk",
      "name": "SAC EXPRESS PEDRO MONTT",
      "address": "Pedro Montt 1875, Valparaíso",
      "lat": -33.0467073,
      "lon": -71.6172223,
      "rating": 3.3,
      "user_ratings_total": 7,
      "types": [
        "supermarket",
        "grocery_or_supermarket",
        "point_of_interest",
        "food",
        "store",
        "establishment"
      ],
      "business_status": "CLOSED_TEMPORARILY"
    },
    {
      "place_id": "ChIJ-07pNTDXiZYRF6GyU2tV64k",
      "name": "Unimarc",
      "address": "Av. Valparaíso 899, Villa Alemana",
      "lat": -33.0444417,
      "lon": -71.3765683,
      "rating": 4,
      "user_ratings_total": 2973,
      "types": [
        "supermarket",
        "grocery_or_supermarket",
        "point_of_interest",
        "food",
        "store",
        "establishment"
      ],
      "business_status": "OPERATIONAL"
    },
    {
      "place_id": "ChIJrRNoHgTdiZYRCK2j5pgQYlY",
      "name": "Supermercado Tottus Reñaca",
      "address": "Vicuña Mackenna 1050, Viña del Mar",
      "lat": -32.972149,
      "lon": -71.5324942,
      "rating": 4.1,
      "user_ratings_total": 2860,
      "types": [
        "supermarket",
        "grocery_or_supermarket",
        "point_of_interest",
        "food",
        "store",
        "establishment"
      ],
      "business_status": "OPERATIONAL"
    },
    {
      "place_id": "ChIJ0-nrWdy1aZYR5V2swc1PCng",
      "name": "Supermercado Lider",
      "address": "Arturo Prat 651, Concepción",
      "lat": -36.8288074,
      "lon": -73.0606902,
      "rating": 4.2,
      "user_ratings_total": 11425,
      "types": [
        "supermarket",
        "grocery_or_supermarket",
        "store",
        "food",
        "point_of_interest",
        "establishment"
      ],
      "business_status": "OPERATIONAL"
    },
    {
      "place_id": "ChIJF6nHZhe1aZYR26ZSP4MQxZQ",
      "name": "Supermercado Lider",
      "address": "Autop. Concepción - Talcahuano 9000, Concepción, Hualpén",
      "lat": -36.795803,
      "lon": -73.069786,
      "rating": 4.3,
      "user_ratings_total": 9433,
      "types": [
        "supermarket",
        "grocery_or_supermarket",
        "store",
        "food",
        "point_of_interest",
        "establishment"
      ],
      "business_status": "OPERATIONAL"
    },
    {
      "place_id": "ChIJlSP2Grq1aZYRHgNxofyVJQ8",
      "name": "Supermercado Lider",
      "address": "Av. San Juan Bosco 2084, Concepción",
      "lat": -36.8175043,
      "lon": -73.0326687,
      "rating": 4.2,
      "user_ratings_total": 7914,
      "types": [
        "supermarket",
        "grocery_or_supermarket",
        "store",
        "food",
        "point_of_interest",
        "establishment"
      ],
      "business_status": "OPERATIONAL"
    },
    {
      "place_id": "ChIJrfjdl1vPYpYRYe94_jQV0po",
      "name": "Supermercado Lider",
      "address": "Av. Manuel Montt 2328, Coronel",
      "lat": -36.9954614,
      "lon": -73.1618696,
      "rating": 4.1,
      "user_ratings_total": 4222,
      "types": [
        "supermarket",
        "grocery_or_supermarket",
        "store",
        "food",
        "point_of_interest",
        "establishment"
      ],
      "business_status": "OPERATIONAL"
    },
    {
      "place_id": "ChIJ16uN_MO5aZYRrrHWgbNYgiA",
      "name": "Supermercado Lider",
      "address": "Av. Manuel Rodríguez 915, Chiguayante",
      "lat": -36.930339,
      "lon": -73.0226599,
      "rating": 4.2,
      "user_ratings_total": 2379,
      "types": [
        "supermarket",
        "grocery_or_supermarket",
        "store",
        "food",
        "point_of_interest",
        "establishment"
      ],
      "business_status": "OPERATIONAL"
    },
    {
      "place_id": "ChIJWcCjRWfJaZYRJP2g_sTGX_I",
      "name": "Supermercado Lider",
      "address": "Los Mañios 4385, San Pedro de la Paz",
      "lat": -36.8584144,
      "lon": -73.13190159999999,
      "rating": 4.4,
      "user_ratings_total": 276,
      "types": [
        "supermarket",
        "grocery_or_supermarket",
        "store",
        "food",
        "point_of_interest",
        "establishment"
      ],
      "business_status": "OPERATIONAL"
    },
    {
      "place_id": "ChIJ4b9u3jQ1aJYRZKlVXfTtAb0",
      "name": "Supermercado Lider",
      "address": "Pérez Gacitúa 279, Talcahuano",
      "lat": -36.7274335,
      "lon": -73.1081319,
      "rating": 4.5,
      "user_ratings_total": 295,
      "types": [
        "supermarket",
        "grocery_or_supermarket",
        "store",
        "food",
        "point_of_interest",
        "establishment"
      ],
      "business_status": "OPERATIONAL"
    },
    {
      "place_id": "ChIJt8Z3uOK1aZYRN2PUvreNUrE",
      "name": "Express de Lider",
      "address": "Paicaví 1376, Concepción",
      "lat": -36.81418670000001,
      "lon": -73.04757,
      "rating": 4.3,
      "user_ratings_total": 3483,
      "types": [
        "supermarket",
        "grocery_or_supermarket",
        "store",
        "food",
        "point_of_interest",
        "establishment"
      ],
      "business_status": "OPERATIONAL"
    },
    {
      "place_id": "ChIJN4fSCfTLaZYRaXYqCdSpsDg",
      "name": "Express de Lider",
      "address": "Av. Laguna Grande 1150, San Pedro de la Paz",
      "lat": -36.8384796,
      "lon": -73.1193596,
      "rating": 4.2,
      "user_ratings_total": 2680,
      "types": [
        "supermarket",
        "grocery_or_supermarket",
        "store",
        "food",
        "point_of_interest",
        "establishment"
      ],
      "business_status": "OPERATIONAL"
    },
    {
      "place_id": "ChIJsbXVT3jKaZYRYt-A1AABU90",
      "name": "Jumbo",
      "address": "Av. Costanera Norte, 9781, Hualpén",
      "lat": -36.8073107,
      "lon": -73.09045789999999,
      "rating": 4.4,
      "user_ratings_total": 9280,
      "types": [
        "supermarket",
        "grocery_or_supermarket",
        "store",
        "food",
        "point_of_interest",
        "establishment"
      ],
      "business_status": "OPERATIONAL"
    },
    {
      "place_id": "ChIJz14NGNu1aZYR9JkX9j_0hJw",
      "name": "Santa Isabel",
      "address": "Freire 455, Concepción",
      "lat": -36.8264312,
      "lon": -73.0538919,
      "rating": 4,
      "user_ratings_total": 3772,
      "types": [
        "supermarket",
        "grocery_or_supermarket",
        "store",
        "food",
        "point_of_interest",
        "establishment"
      ],
      "business_status": "OPERATIONAL"
    },
    {
      "place_id": "ChIJJUNh7YPaYpYRdXT_ATnFO9c",
      "name": "SuperBodega aCuenta",
      "address": "Gómez Carreño 3521, Talcahuano",
      "lat": -36.7452735,
      "lon": -73.0954971,
      "rating": 3.9,
      "user_ratings_total": 2526,
      "types": [
        "supermarket",
        "grocery_or_supermarket",
        "store",
        "food",
        "point_of_interest",
        "establishment"
      ],
      "business_status": "OPERATIONAL"
    },
    {
      "place_id": "ChIJefHDVjq0aZYR3AuIalx5gEQ",
      "name": "Santa Isabel",
      "address": "Gral. Novoa 530, Concepción",
      "lat": -36.8188486,
      "lon": -73.02391109999999,
      "rating": 4.1,
      "user_ratings_total": 3023,
      "types": [
        "supermarket",
        "grocery_or_supermarket",
        "store",
        "food",
        "point_of_interest",
        "establishment"
      ],
      "business_status": "OPERATIONAL"
    },
    {
      "place_id": "ChIJwUdtPtTLaZYRsKfx1mZP-iw",
      "name": "SuperBodega aCuenta",
      "address": "Av Michaihue 120, San Pedro de la Paz",
      "lat": -36.8435363,
      "lon": -73.1326522,
      "rating": 3.9,
      "user_ratings_total": 627,
      "types": [
        "supermarket",
        "grocery_or_supermarket",
        "store",
        "food",
        "point_of_interest",
        "establishment"
      ],
      "business_status": "OPERATIONAL"
    },
    {
      "place_id": "ChIJp24zyr7GaZYRJB5C4dFQv_I",
      "name": "Santa Isabel",
      "address": "Av. Manuel Montt 01600, Coronel",
      "lat": -36.9975653,
      "lon": -73.1618653,
      "rating": 4.1,
      "user_ratings_total": 963,
      "types": [
        "supermarket",
        "grocery_or_supermarket",
        "store",
        "food",
        "point_of_interest",
        "establishment"
      ],
      "business_status": "OPERATIONAL"
    },
    {
      "place_id": "ChIJ44IFls61aZYRTKkDdEdDsAA",
      "name": "Central",
      "address": "Las Heras 1081, Concepción",
      "lat": -36.8201345,
      "lon": -73.0477141,
      "rating": 4.1,
      "user_ratings_total": 14,
      "types": [
        "supermarket",
        "grocery_or_supermarket",
        "store",
        "food",
        "point_of_interest",
        "establishment"
      ],
      "business_status": "OPERATIONAL"
    },
    {
      "place_id": "ChIJaWeGblW0aZYRFK0LdMI7kaE",
      "name": "SuperBodega aCuenta",
      "address": "Av. Andalién 950, Concepción",
      "lat": -36.7931884,
      "lon": -73.0355758,
      "rating": 4,
      "user_ratings_total": 2241,
      "types": [
        "supermarket",
        "grocery_or_supermarket",
        "store",
        "food",
        "point_of_interest",
        "establishment"
      ],
      "business_status": "OPERATIONAL"
    },
    {
      "place_id": "ChIJRyPYam67aZYRuCStFEg-ed4",
      "name": "SuperBodega aCuenta",
      "address": "Bombero peret248 - Bombero perret248, Bombero Perret 248, Hualqui",
      "lat": -36.9704234,
      "lon": -72.9324456,
      "rating": 4.1,
      "user_ratings_total": 737,
      "types": [
        "supermarket",
        "grocery_or_supermarket",
        "store",
        "food",
        "point_of_interest",
        "establishment"
      ],
      "business_status": "OPERATIONAL"
    },
    {
      "place_id": "ChIJqdQkQozKaZYRQ7dN6Dxub8s",
      "name": "SuperBodega aCuenta",
      "address": "Gran Bretaña N° 4041, Hualpén",
      "lat": -36.7947382,
      "lon": -73.1072991,
      "rating": 3.9,
      "user_ratings_total": 1578,
      "types": [
        "supermarket",
        "grocery_or_supermarket",
        "store",
        "food",
        "point_of_interest",
        "establishment"
      ],
      "business_status": "OPERATIONAL"
    },
    {
      "place_id": "ChIJoWu-2DS0aZYR9sDdc0BNUuU",
      "name": "Super Ganga",
      "address": "Lientur 1067, Concepción",
      "lat": -36.8148884,
      "lon": -73.0397721,
      "rating": 4.1,
      "user_ratings_total": 268,
      "types": [
        "supermarket",
        "grocery_or_supermarket",
        "store",
        "food",
        "point_of_interest",
        "establishment"
      ],
      "business_status": "OPERATIONAL"
    },
    {
      "place_id": "ChIJCxQJ-tq5aZYRF-nFrFTWr-Y",
      "name": "Super Ganga",
      "address": "Av. Manuel Rodríguez 376, Chiguayante",
      "lat": -36.9232765,
      "lon": -73.02649339999999,
      "rating": 4,
      "user_ratings_total": 1120,
      "types": [
        "supermarket",
        "grocery_or_supermarket",
        "food",
        "store",
        "point_of_interest",
        "establishment"
      ],
      "business_status": "OPERATIONAL"
    },
    {
      "place_id": "ChIJB3zea9K1aZYRZ7XiXPqpRy0",
      "name": "Jumbo",
      "address": "Barros Arana 1068, Concepción",
      "lat": -36.8250519,
      "lon": -73.0444809,
      "rating": 4.3,
      "user_ratings_total": 9270,
      "types": [
        "supermarket",
        "grocery_or_supermarket",
        "food",
        "store",
        "point_of_interest",
        "establishment"
      ],
      "business_status": "OPERATIONAL"
    },
    {
      "place_id": "ChIJH6Os_9K1aZYRqWJTQMnvhUI",
      "name": "Santa Isabel",
      "address": "Diag. Pedro Aguirre Cerda 1107, Concepción",
      "lat": -36.8258563,
      "lon": -73.0438152,
      "rating": 3.9,
      "user_ratings_total": 2605,
      "types": [
        "supermarket",
        "grocery_or_supermarket",
        "food",
        "store",
        "point_of_interest",
        "establishment"
      ],
      "business_status": "OPERATIONAL"
    },
    {
      "place_id": "ChIJORTux725aZYRJPYG57oUkfw",
      "name": "Santa Isabel",
      "address": "Av. Manuel Rodríguez 2150, Chiguayante",
      "lat": -36.9413476,
      "lon": -73.0189536,
      "rating": 4.1,
      "user_ratings_total": 2077,
      "types": [
        "supermarket",
        "grocery_or_supermarket",
        "food",
        "store",
        "point_of_interest",
        "establishment"
      ],
      "business_status": "OPERATIONAL"
    },
    {
      "place_id": "ChIJB8AxS__JaZYRFfSeNUz9bXg",
      "name": "Santa Isabel",
      "address": "Av. Michimalonco 1040, San Pedro de la Paz",
      "lat": -36.842418,
      "lon": -73.09313,
      "rating": 4.2,
      "user_ratings_total": 2362,
      "types": [
        "supermarket",
        "grocery_or_supermarket",
        "food",
        "store",
        "point_of_interest",
        "establishment"
      ],
      "business_status": "OPERATIONAL"
    },
    {
      "place_id": "ChIJwdfvVb25aZYRxlZgHjOX38Q",
      "name": "SuperBodega aCuenta",
      "address": "Av. Manuel Rodríguez 2550, Chiguayante",
      "lat": -36.9448946,
      "lon": -73.01713149999999,
      "rating": 3.9,
      "user_ratings_total": 1910,
      "types": [
        "supermarket",
        "grocery_or_supermarket",
        "food",
        "store",
        "point_of_interest",
        "establishment"
      ],
      "business_status": "OPERATIONAL"
    },
    {
      "place_id": "ChIJI1tuzaM1aJYRTPkyZQJGu3Q",
      "name": "Santa Isabel",
      "address": "Colón 180, Talcahuano",
      "lat": -36.7127038,
      "lon": -73.1145464,
      "rating": 3.9,
      "user_ratings_total": 2038,
      "types": [
        "supermarket",
        "grocery_or_supermarket",
        "food",
        "store",
        "point_of_interest",
        "establishment"
      ],
      "business_status": "OPERATIONAL"
    },
    {
      "place_id": "ChIJ_-1DC6rBaZYRBvoIBQg3j6g",
      "name": "SuperBodega aCuenta",
      "address": "Arturo Prat 402, Lota",
      "lat": -37.0939207,
      "lon": -73.1535454,
      "rating": 4.2,
      "user_ratings_total": 114,
      "types": [
        "supermarket",
        "grocery_or_supermarket",
        "food",
        "store",
        "point_of_interest",
        "establishment"
      ],
      "business_status": "OPERATIONAL"
    },
    {
      "place_id": "ChIJy63rM9C1aZYRs0oo3P25naM",
      "name": "Santa Isabel",
      "address": "Barros Arana 883, Block 899, Concepción",
      "lat": -36.8252712,
      "lon": -73.04768030000001,
      "rating": 4,
      "user_ratings_total": 962,
      "types": [
        "supermarket",
        "grocery_or_supermarket",
        "food",
        "store",
        "point_of_interest",
        "establishment"
      ],
      "business_status": "OPERATIONAL"
    },
    {
      "place_id": "ChIJHfWD6pi5aZYR5JkXDktuzo4",
      "name": "Super Ganga",
      "address": "Av. Manuel Rodríguez 3004, Chiguayante",
      "lat": -36.9490214,
      "lon": -73.01554949999999,
      "rating": 4.1,
      "user_ratings_total": 754,
      "types": [
        "supermarket",
        "grocery_or_supermarket",
        "food",
        "store",
        "point_of_interest",
        "establishment"
      ],
      "business_status": "OPERATIONAL"
    },
    {
      "place_id": "ChIJl5V5McNNaJYRCF3k_un27sA",
      "name": "Unimarc",
      "address": "Freire 699, Penco",
      "lat": -36.7364127,
      "lon": -72.99277409999999,
      "rating": 3.8,
      "user_ratings_total": 1465,
      "types": [
        "supermarket",
        "grocery_or_supermarket",
        "food",
        "store",
        "point_of_interest",
        "establishment"
      ],
      "business_status": "OPERATIONAL"
    },
    {
      "place_id": "ChIJUa7Le5bGaZYRqac30pjs89o",
      "name": "Donde La Sarita",
      "address": "California 2001, Coronel",
      "lat": -36.9956906,
      "lon": -73.16481,
      "rating": 4.1,
      "user_ratings_total": 12,
      "types": [
        "supermarket",
        "grocery_or_supermarket",
        "food",
        "store",
        "point_of_interest",
        "establishment"
      ],
      "business_status": "OPERATIONAL"
    },
    {
      "place_id": "ChIJE0yVi9-1aZYRg4cTlddCm94",
      "name": "Alvi",
      "address": "Av. Cristóbal Colón 7948, Hualpén",
      "lat": -36.7871921,
      "lon": -73.0887821,
      "rating": 3.8,
      "user_ratings_total": 1480,
      "types": [
        "supermarket",
        "grocery_or_supermarket",
        "food",
        "store",
        "point_of_interest",
        "establishment"
      ],
      "business_status": "OPERATIONAL"
    },
    {
      "place_id": "ChIJN2TD6xfKaZYRaLghIXCbGzs",
      "name": "Unimarc",
      "address": "Las Violetas 1782, San Pedro de la Paz",
      "lat": -36.8327654,
      "lon": -73.1105456,
      "rating": 3.9,
      "user_ratings_total": 1342,
      "types": [
        "supermarket",
        "grocery_or_supermarket",
        "food",
        "store",
        "point_of_interest",
        "establishment"
      ],
      "business_status": "OPERATIONAL"
    },
    {
      "place_id": "ChIJuQAxYcW1aZYRuKDgWLt-emE",
      "name": "Supermercado Mayorista 10",
      "address": "Av. Los Carrera 637, Concepción",
      "lat": -36.8231879,
      "lon": -73.0530119,
      "rating": 4.1,
      "user_ratings_total": 1631,
      "types": [
        "supermarket",
        "grocery_or_supermarket",
        "food",
        "store",
        "point_of_interest",
        "establishment"
      ],
      "business_status": "OPERATIONAL"
    },
    {
      "place_id": "ChIJty4zT8W1aZYRFszsh4SPfMQ",
      "name": "Alvi",
      "address": "Av. Los Carrera 555, Concepción",
      "lat": -36.8234324,
      "lon": -73.05395279999999,
      "rating": 4,
      "user_ratings_total": 1332,
      "types": [
        "grocery_or_supermarket",
        "supermarket",
        "food",
        "store",
        "point_of_interest",
        "establishment"
      ],
      "business_status": "OPERATIONAL"
    },
    {
      "place_id": "ChIJjXxv2u_LaZYR4wvPqVKjLHI",
      "name": "Unimarc",
      "address": "Av. Dos 35, Peñuelas, Hualpén",
      "lat": -36.7978509,
      "lon": -73.1071805,
      "rating": 3.8,
      "user_ratings_total": 1486,
      "types": [
        "supermarket",
        "grocery_or_supermarket",
        "food",
        "store",
        "point_of_interest",
        "establishment"
      ],
      "business_status": "OPERATIONAL"
    },
    {
      "place_id": "ChIJp9b_VUnda5YRqRO2AopTjE4",
      "name": "Supermercado Lider",
      "address": "Av. Ricardo Vicuña 284, Los Angeles, Los Ángeles",
      "lat": -37.473377,
      "lon": -72.3489122,
      "rating": 4.1,
      "user_ratings_total": 4720,
      "types": [
        "supermarket",
        "grocery_or_supermarket",
        "store",
        "food",
        "point_of_interest",
        "establishment"
      ],
      "business_status": "OPERATIONAL"
    },
    {
      "place_id": "ChIJd8Nkx2Lda5YRebFn3_HNleU",
      "name": "Supermercado Lider",
      "address": "Av. Sor Vicenta 2575, Los Angeles, Los Ángeles",
      "lat": -37.4462623,
      "lon": -72.3319625,
      "rating": 4.2,
      "user_ratings_total": 4178,
      "types": [
        "supermarket",
        "grocery_or_supermarket",
        "store",
        "food",
        "point_of_interest",
        "establishment"
      ],
      "business_status": "OPERATIONAL"
    },
    {
      "place_id": "ChIJrXj8abLda5YRhOQpf8yZgrU",
      "name": "Express de Lider",
      "address": "Av. Alcázar 635, LOCAL 4 INTERIOR, Los Angeles, Los Ángeles",
      "lat": -37.4794197,
      "lon": -72.3636398,
      "rating": 4.2,
      "user_ratings_total": 1897,
      "types": [
        "supermarket",
        "grocery_or_supermarket",
        "store",
        "food",
        "point_of_interest",
        "establishment"
      ],
      "business_status": "OPERATIONAL"
    },
    {
      "place_id": "ChIJKQM7eFHda5YRfOwr-LZAgIM",
      "name": "Express de Lider",
      "address": "Villagrán 551, Los Angeles, Los Ángeles",
      "lat": -37.4670309,
      "lon": -72.348066,
      "rating": 4.1,
      "user_ratings_total": 468,
      "types": [
        "supermarket",
        "grocery_or_supermarket",
        "store",
        "food",
        "point_of_interest",
        "establishment"
      ],
      "business_status": "OPERATIONAL"
    },
    {
      "place_id": "ChIJM2jDZy8oaZYRuCTwg4qSBko",
      "name": "Supermercado Lider",
      "address": "Av. Collín 698, Chillán",
      "lat": -36.6157569,
      "lon": -72.10559839999999,
      "rating": 4.2,
      "user_ratings_total": 8150,
      "types": [
        "supermarket",
        "grocery_or_supermarket",
        "store",
        "food",
        "point_of_interest",
        "establishment"
      ],
      "business_status": "OPERATIONAL"
    },
    {
      "place_id": "ChIJ8yLjvbPXaJYRuMA8AYo-bP4",
      "name": "Express de Lider",
      "address": "Av. Paul Harris 1155, Chillán",
      "lat": -36.5904859,
      "lon": -72.0849743,
      "rating": 4.4,
      "user_ratings_total": 1626,
      "types": [
        "supermarket",
        "grocery_or_supermarket",
        "store",
        "food",
        "point_of_interest",
        "establishment"
      ],
      "business_status": "OPERATIONAL"
    },
    {
      "place_id": "ChIJ1bLYzSsoaZYRK1LLUoWMsnM",
      "name": "SuperBodega aCuenta",
      "address": "Maipón 873, Chillán",
      "lat": -36.610893,
      "lon": -72.0995014,
      "rating": 4.1,
      "user_ratings_total": 1351,
      "types": [
        "supermarket",
        "grocery_or_supermarket",
        "store",
        "food",
        "point_of_interest",
        "establishment"
      ],
      "business_status": "OPERATIONAL"
    },
    {
      "place_id": "ChIJtTp5msXXaJYRIcDSzKeti2E",
      "name": "Jumbo",
      "address": "Longitudinal Norte 134, Chillán",
      "lat": -36.6162246,
      "lon": -72.1208786,
      "rating": 4.4,
      "user_ratings_total": 9193,
      "types": [
        "supermarket",
        "grocery_or_supermarket",
        "store",
        "food",
        "point_of_interest",
        "establishment"
      ],
      "business_status": "OPERATIONAL"
    },
    {
      "place_id": "ChIJ7b9N8Q7XaJYRy7MrWx3NNWc",
      "name": "Supermercados Cugat",
      "address": "Av. Argentina 170, Chillán",
      "lat": -36.6040895,
      "lon": -72.0922247,
      "rating": 4.3,
      "user_ratings_total": 3511,
      "types": [
        "supermarket",
        "grocery_or_supermarket",
        "store",
        "food",
        "point_of_interest",
        "establishment"
      ],
      "business_status": "OPERATIONAL"
    },
    {
      "place_id": "ChIJrfTXvjDWaJYRYt7q_-OlR00",
      "name": "Jumbo",
      "address": "Av. Vicente Méndez 1160, Chillán",
      "lat": -36.5909204,
      "lon": -72.0834428,
      "rating": 4.3,
      "user_ratings_total": 1755,
      "types": [
        "supermarket",
        "grocery_or_supermarket",
        "store",
        "food",
        "point_of_interest",
        "establishment"
      ],
      "business_status": "OPERATIONAL"
    },
    {
      "place_id": "ChIJydU8sLEpaZYRceFkk4faJDI",
      "name": "Mega Ofertas",
      "address": "Reloncaví 1350, Chillán",
      "lat": -36.6181886,
      "lon": -72.0778164,
      "rating": null,
      "user_ratings_total": 0,
      "types": [
        "supermarket",
        "grocery_or_supermarket",
        "store",
        "food",
        "point_of_interest",
        "establishment"
      ],
      "business_status": "OPERATIONAL"
    },
    {
      "place_id": "ChIJ_4bucskpaZYRkvPa4ayC2SU",
      "name": "SuperBodega aCuenta",
      "address": "Los Puelches 1551, Chillán",
      "lat": -36.6243187,
      "lon": -72.08672,
      "rating": 4,
      "user_ratings_total": 1996,
      "types": [
        "supermarket",
        "grocery_or_supermarket",
        "store",
        "food",
        "point_of_interest",
        "establishment"
      ],
      "business_status": "OPERATIONAL"
    },
    {
      "place_id": "ChIJU0sXhUfTaJYREN-1jcTGycU",
      "name": "Bull Market",
      "address": "Ramón Freire 796, San Carlos",
      "lat": -36.4395679,
      "lon": -71.97182649999999,
      "rating": null,
      "user_ratings_total": 0,
      "types": [
        "supermarket",
        "grocery_or_supermarket",
        "store",
        "food",
        "point_of_interest",
        "establishment"
      ],
      "business_status": "OPERATIONAL"
    },
    {
      "place_id": "ChIJqfP9NgApaZYRjgT4vh-kRoc",
      "name": "Unimarc",
      "address": "5 de Abril 754, Chillán",
      "lat": -36.6097816,
      "lon": -72.1020951,
      "rating": 4,
      "user_ratings_total": 3329,
      "types": [
        "supermarket",
        "grocery_or_supermarket",
        "store",
        "food",
        "point_of_interest",
        "establishment"
      ],
      "business_status": "OPERATIONAL"
    },
    {
      "place_id": "ChIJny8jea7SaJYRayXIMV5uBN0",
      "name": "Unimarc",
      "address": "Ignacio Serrano Montaner 500, San Carlos",
      "lat": -36.4269466,
      "lon": -71.9580803,
      "rating": 3.7,
      "user_ratings_total": 979,
      "types": [
        "supermarket",
        "grocery_or_supermarket",
        "store",
        "food",
        "point_of_interest",
        "establishment"
      ],
      "business_status": "OPERATIONAL"
    },
    {
      "place_id": "ChIJG7eCRSkoaZYR9lbK8ax--ao",
      "name": "Super 10",
      "address": "Isabel Riquelme 959, Chillán",
      "lat": -36.612608,
      "lon": -72.1012643,
      "rating": 4,
      "user_ratings_total": 364,
      "types": [
        "supermarket",
        "grocery_or_supermarket",
        "store",
        "food",
        "point_of_interest",
        "establishment"
      ],
      "business_status": "OPERATIONAL"
    },
    {
      "place_id": "ChIJPz8GALXVFJYR2wHkJlhAMv4",
      "name": "Supermercado Lider",
      "address": "Av. Gabriela Mistral 2621, Temuco",
      "lat": -38.734703,
      "lon": -72.6415863,
      "rating": 4.3,
      "user_ratings_total": 4772,
      "types": [
        "supermarket",
        "grocery_or_supermarket",
        "food",
        "point_of_interest",
        "store",
        "establishment"
      ],
      "business_status": "OPERATIONAL"
    },
    {
      "place_id": "ChIJYcozTPrTFJYRisxCvJ8ivbQ",
      "name": "Supermercado Lider",
      "address": "Prieto Norte 0320 Temuco, Araucanía, Temuco",
      "lat": -38.7291793,
      "lon": -72.59963549999999,
      "rating": 4.1,
      "user_ratings_total": 7705,
      "types": [
        "supermarket",
        "grocery_or_supermarket",
        "food",
        "point_of_interest",
        "store",
        "establishment"
      ],
      "business_status": "OPERATIONAL"
    },
    {
      "place_id": "ChIJj7AZcmLTFJYRhmc1zEkalVY",
      "name": "Supermercado Lider",
      "address": "Av. Barros Arana 0308, Temuco",
      "lat": -38.732488,
      "lon": -72.5744806,
      "rating": 4.2,
      "user_ratings_total": 5403,
      "types": [
        "supermarket",
        "grocery_or_supermarket",
        "food",
        "point_of_interest",
        "store",
        "establishment"
      ],
      "business_status": "OPERATIONAL"
    },
    {
      "place_id": "ChIJURrD83DVFJYRCcW9rMBhk2o",
      "name": "Express de Lider",
      "address": "Los Pablos 2050, Temuco",
      "lat": -38.744782,
      "lon": -72.6410899,
      "rating": 4.6,
      "user_ratings_total": 334,
      "types": [
        "supermarket",
        "grocery_or_supermarket",
        "food",
        "point_of_interest",
        "store",
        "establishment"
      ],
      "business_status": "OPERATIONAL"
    },
    {
      "place_id": "ChIJj_8hdxjTFJYR6ucu_PMIVoo",
      "name": "Express de Lider",
      "address": "Rudecindo Ortega 1481, Temuco",
      "lat": -38.7181119,
      "lon": -72.5656719,
      "rating": 4.2,
      "user_ratings_total": 2956,
      "types": [
        "supermarket",
        "grocery_or_supermarket",
        "food",
        "point_of_interest",
        "store",
        "establishment"
      ],
      "business_status": "OPERATIONAL"
    },
    {
      "place_id": "ChIJRb5ka5_WFJYRaf-mig7uZjE",
      "name": "Express de Lider",
      "address": "Manuel Recabarren 02320, Temuco",
      "lat": -38.7572284,
      "lon": -72.64001720000002,
      "rating": 4.2,
      "user_ratings_total": 2708,
      "types": [
        "supermarket",
        "grocery_or_supermarket",
        "food",
        "point_of_interest",
        "store",
        "establishment"
      ],
      "business_status": "OPERATIONAL"
    },
    {
      "place_id": "ChIJ-1kvHuwrFZYRHMYqtx-5VwQ",
      "name": "SuperBodega aCuenta",
      "address": "C. 1 Sur 070, Temuco",
      "lat": -38.7678668,
      "lon": -72.7601652,
      "rating": 4.2,
      "user_ratings_total": 631,
      "types": [
        "supermarket",
        "grocery_or_supermarket",
        "food",
        "point_of_interest",
        "store",
        "establishment"
      ],
      "business_status": "OPERATIONAL"
    },
    {
      "place_id": "ChIJ0WHls2TUFJYREIC6lvhXnW8",
      "name": "SuperBodega aCuenta",
      "address": "Av. Pedro de Valdivia 02195, Temuco",
      "lat": -38.7165898,
      "lon": -72.62726719999999,
      "rating": 3.8,
      "user_ratings_total": 1554,
      "types": [
        "supermarket",
        "grocery_or_supermarket",
        "food",
        "point_of_interest",
        "store",
        "establishment"
      ],
      "business_status": "OPERATIONAL"
    },
    {
      "place_id": "ChIJRfYStNrTFJYROXPvALUG22A",
      "name": "SuperBodega aCuenta",
      "address": "Manuel Antonio Matta 025, Temuco",
      "lat": -38.7338523,
      "lon": -72.5806427,
      "rating": 3.8,
      "user_ratings_total": 1276,
      "types": [
        "supermarket",
        "grocery_or_supermarket",
        "food",
        "point_of_interest",
        "store",
        "establishment"
      ],
      "business_status": "OPERATIONAL"
    },
    {
      "place_id": "ChIJfebhjeXTFJYRx2eTQhkAy-E",
      "name": "Santa Isabel",
      "address": "Gral. Carrera 499, Temuco",
      "lat": -38.736972,
      "lon": -72.596498,
      "rating": 3.8,
      "user_ratings_total": 3048,
      "types": [
        "supermarket",
        "grocery_or_supermarket",
        "food",
        "point_of_interest",
        "store",
        "establishment"
      ],
      "business_status": "OPERATIONAL"
    },
    {
      "place_id": "ChIJC5nPRRjUFJYRWn9ibX3ts_o",
      "name": "Jumbo",
      "address": "Los Pablos 1800, Temuco",
      "lat": -38.7439539,
      "lon": -72.6374953,
      "rating": 4.4,
      "user_ratings_total": 3744,
      "types": [
        "supermarket",
        "grocery_or_supermarket",
        "food",
        "point_of_interest",
        "store",
        "establishment"
      ],
      "business_status": "OPERATIONAL"
    },
    {
      "place_id": "ChIJg867DArUFJYR6Mj2UoIcybg",
      "name": "Jumbo",
      "address": "Av. Alemania 633, Temuco",
      "lat": -38.733963,
      "lon": -72.6107025,
      "rating": 4.3,
      "user_ratings_total": 9211,
      "types": [
        "supermarket",
        "shopping_mall",
        "grocery_or_supermarket",
        "food",
        "point_of_interest",
        "store",
        "establishment"
      ],
      "business_status": "OPERATIONAL"
    },
    {
      "place_id": "ChIJ6ZFzg-HVFJYRctbBR9yEvoA",
      "name": "Supermercados Trébol",
      "address": "Luis Durand 02175, Temuco",
      "lat": -38.7250369,
      "lon": -72.6300874,
      "rating": 4.3,
      "user_ratings_total": 604,
      "types": [
        "supermarket",
        "convenience_store",
        "grocery_or_supermarket",
        "food",
        "point_of_interest",
        "store",
        "establishment"
      ],
      "business_status": "OPERATIONAL"
    },
    {
      "place_id": "ChIJs6qahefTFJYRrBPqPtJx3po",
      "name": "Supermercados Trébol",
      "address": "Vicuña Mackenna 450, Temuco",
      "lat": -38.737608,
      "lon": -72.5917441,
      "rating": 4.1,
      "user_ratings_total": 417,
      "types": [
        "supermarket",
        "convenience_store",
        "grocery_or_supermarket",
        "food",
        "point_of_interest",
        "store",
        "establishment"
      ],
      "business_status": "OPERATIONAL"
    },
    {
      "place_id": "ChIJp98pRNzTFJYR5L2fnBSjOIQ",
      "name": "Supermercados Trébol",
      "address": "Gral. Aldunate 485, Temuco",
      "lat": -38.738525,
      "lon": -72.58759909999999,
      "rating": 3.9,
      "user_ratings_total": 800,
      "types": [
        "supermarket",
        "convenience_store",
        "grocery_or_supermarket",
        "food",
        "point_of_interest",
        "store",
        "establishment"
      ],
      "business_status": "OPERATIONAL"
    },
    {
      "place_id": "ChIJN-hBF8PTFJYRpSTxtFcjatU",
      "name": "Supermercados Trébol",
      "address": "Manuel Bulnes 13, Temuco",
      "lat": -38.7335889,
      "lon": -72.58770179999999,
      "rating": 4,
      "user_ratings_total": 671,
      "types": [
        "supermarket",
        "convenience_store",
        "grocery_or_supermarket",
        "food",
        "point_of_interest",
        "store",
        "establishment"
      ],
      "business_status": "OPERATIONAL"
    },
    {
      "place_id": "ChIJeZ-xb1fUFJYRUa1EVXqXuX8",
      "name": "Santa Isabel",
      "address": "Fundo El Carmen - Los Creadores 0191, Temuco",
      "lat": -38.717423,
      "lon": -72.65104199999999,
      "rating": 4.1,
      "user_ratings_total": 1823,
      "types": [
        "supermarket",
        "grocery_or_supermarket",
        "food",
        "point_of_interest",
        "store",
        "establishment"
      ],
      "business_status": "OPERATIONAL"
    },
    {
      "place_id": "ChIJodIIzELRFJYRM3C5S5ZdRnE",
      "name": "Supermercados Trébol Padre Las Casas",
      "address": "Avenida Villa Alegre 774, Padre las Casas, Padre Las Casas",
      "lat": -38.7568187,
      "lon": -72.5932656,
      "rating": 3.9,
      "user_ratings_total": 999,
      "types": [
        "supermarket",
        "convenience_store",
        "grocery_or_supermarket",
        "food",
        "point_of_interest",
        "store",
        "establishment"
      ],
      "business_status": "OPERATIONAL"
    },
    {
      "place_id": "ChIJV1r22jPVFJYRBJ3SIdA_dN0",
      "name": "Unimarc",
      "address": "Av. Las Encinas 02690, Temuco",
      "lat": -38.740588,
      "lon": -72.6424481,
      "rating": 4.1,
      "user_ratings_total": 960,
      "types": [
        "supermarket",
        "grocery_or_supermarket",
        "food",
        "point_of_interest",
        "store",
        "establishment"
      ],
      "business_status": "OPERATIONAL"
    },
    {
      "place_id": "ChIJ4xvWufLXFJYRtM0XqJW3FwQ",
      "name": "Alvi",
      "address": "Francisco Salazar 1650, Temuco",
      "lat": -38.7537204,
      "lon": -72.618858,
      "rating": 3.9,
      "user_ratings_total": 1812,
      "types": [
        "supermarket",
        "grocery_or_supermarket",
        "food",
        "point_of_interest",
        "store",
        "establishment"
      ],
      "business_status": "OPERATIONAL"
    },
    {
      "place_id": "ChIJL4uk5QM7GJYRzkuF3iLKOqk",
      "name": "Supermercado Lider",
      "address": "Parque Industrial 400, Puerto Montt",
      "lat": -41.4600438,
      "lon": -72.95029219999999,
      "rating": null,
      "user_ratings_total": 0,
      "types": [
        "supermarket",
        "grocery_or_supermarket",
        "point_of_interest",
        "food",
        "store",
        "establishment"
      ],
      "business_status": "OPERATIONAL"
    },
    {
      "place_id": "ChIJYTz16j47GJYRPRpY6Poky9Y",
      "name": "Lider",
      "address": "Cardonal, Av. Pdte. Ibáñez, Puerto Montt",
      "lat": -41.4714995,
      "lon": -72.9664231,
      "rating": 4.2,
      "user_ratings_total": 4165,
      "types": [
        "supermarket",
        "grocery_or_supermarket",
        "point_of_interest",
        "food",
        "store",
        "establishment"
      ],
      "business_status": "OPERATIONAL"
    },
    {
      "place_id": "ChIJAaiavfo6GJYR5p9LO9BslE0",
      "name": "Express de Lider",
      "address": "Monseñor Ramon Munita 1625, Puerto Montt",
      "lat": -41.4554753,
      "lon": -72.9350098,
      "rating": 4.2,
      "user_ratings_total": 2588,
      "types": [
        "supermarket",
        "grocery_or_supermarket",
        "point_of_interest",
        "food",
        "store",
        "establishment"
      ],
      "business_status": "OPERATIONAL"
    },
    {
      "place_id": "ChIJHeRrJFo6GJYRxRCNBzymYrw",
      "name": "Jumbo",
      "address": "Ejército 470, Puerto Montt",
      "lat": -41.46854889999999,
      "lon": -72.931136,
      "rating": null,
      "user_ratings_total": 0,
      "types": [
        "supermarket",
        "grocery_or_supermarket",
        "point_of_interest",
        "food",
        "store",
        "establishment"
      ],
      "business_status": "OPERATIONAL"
    },
    {
      "place_id": "ChIJiRRZ3kMlGJYRvKqkMZA5Amw",
      "name": "Super Bodega Acuenta",
      "address": "Puerto Varas - Alerce - Puerto Montt 553, Alerce, Puerto Montt",
      "lat": -41.4072183,
      "lon": -72.9148733,
      "rating": 3.7,
      "user_ratings_total": 2037,
      "types": [
        "supermarket",
        "grocery_or_supermarket",
        "point_of_interest",
        "food",
        "store",
        "establishment"
      ],
      "business_status": "OPERATIONAL"
    },
    {
      "place_id": "ChIJGUOcA04nGJYRkXe-s_KyPZE",
      "name": "Express de Lider",
      "address": "Av. Gramado 565, Puerto Varas",
      "lat": -41.3171838,
      "lon": -72.987344,
      "rating": null,
      "user_ratings_total": 0,
      "types": [
        "supermarket",
        "grocery_or_supermarket",
        "point_of_interest",
        "food",
        "store",
        "establishment"
      ],
      "business_status": "OPERATIONAL"
    },
    {
      "place_id": "ChIJ4zZZMFM6GJYRhFQRFQUj25g",
      "name": "Express de Lider",
      "address": "Benavente 690, Puerto Montt",
      "lat": -41.4715743,
      "lon": -72.9453731,
      "rating": null,
      "user_ratings_total": 0,
      "types": [
        "supermarket",
        "grocery_or_supermarket",
        "point_of_interest",
        "food",
        "store",
        "establishment"
      ],
      "business_status": "OPERATIONAL"
    },
    {
      "place_id": "ChIJZTYs5tYmGJYRaeEjfsnZsc4",
      "name": "Express De Lider",
      "address": "San Francisco 666, Puerto Varas",
      "lat": -41.3191605,
      "lon": -72.9855922,
      "rating": 4.2,
      "user_ratings_total": 2988,
      "types": [
        "supermarket",
        "grocery_or_supermarket",
        "point_of_interest",
        "food",
        "store",
        "establishment"
      ],
      "business_status": "OPERATIONAL"
    },
    {
      "place_id": "ChIJEdQg4zYmGJYRTndBHIB-zzI",
      "name": "Jumbo",
      "address": "camino Ensenada Centro Comercial Doña Ema - Km 1.5, Puerto Varas",
      "lat": -41.32357,
      "lon": -72.949188,
      "rating": 4.2,
      "user_ratings_total": 2549,
      "types": [
        "supermarket",
        "grocery_or_supermarket",
        "point_of_interest",
        "food",
        "store",
        "establishment"
      ],
      "business_status": "OPERATIONAL"
    },
    {
      "place_id": "ChIJeUgkh7I7GJYRBjWz_OFVRw4",
      "name": "SuperBodega aCuenta",
      "address": "Diego Portales 1001, Puerto Montt",
      "lat": -41.4765831,
      "lon": -72.9487013,
      "rating": null,
      "user_ratings_total": 0,
      "types": [
        "supermarket",
        "grocery_or_supermarket",
        "point_of_interest",
        "food",
        "store",
        "establishment"
      ],
      "business_status": "OPERATIONAL"
    },
    {
      "place_id": "ChIJV2ZR9LM7GJYRrSrYP8TzArM",
      "name": "Supermercados Cugat",
      "address": "SARGENTO SILVA #751 Puerto Montt Los Lagos CL, Puerto Montt",
      "lat": -41.4603555,
      "lon": -72.9386512,
      "rating": null,
      "user_ratings_total": 0,
      "types": [
        "supermarket",
        "grocery_or_supermarket",
        "point_of_interest",
        "food",
        "store",
        "establishment"
      ],
      "business_status": "OPERATIONAL"
    },
    {
      "place_id": "ChIJ0fucAVM6GJYRoNfIMQsNEE0",
      "name": "Unimarc",
      "address": "Urmeneta 574, Puerto Montt",
      "lat": -41.4719411,
      "lon": -72.9432205,
      "rating": null,
      "user_ratings_total": 0,
      "types": [
        "supermarket",
        "grocery_or_supermarket",
        "point_of_interest",
        "food",
        "store",
        "establishment"
      ],
      "business_status": "OPERATIONAL"
    },
    {
      "place_id": "ChIJ5dmo0dUmGJYRcoD81VX_j5k",
      "name": "Santa Isabel",
      "address": "Del Salvador 451, Puerto Varas",
      "lat": -41.317836,
      "lon": -72.985706,
      "rating": 4.2,
      "user_ratings_total": 2087,
      "types": [
        "supermarket",
        "grocery_or_supermarket",
        "point_of_interest",
        "food",
        "store",
        "establishment"
      ],
      "business_status": "OPERATIONAL"
    },
    {
      "place_id": "ChIJhQaeMPU6GJYRP4wf7-gM5jU",
      "name": "Unimarc La Paloma",
      "address": "Volcán Puntiagudo 100, Puerto Montt",
      "lat": -41.4600314,
      "lon": -72.9231535,
      "rating": 3.9,
      "user_ratings_total": 1610,
      "types": [
        "supermarket",
        "grocery_or_supermarket",
        "point_of_interest",
        "food",
        "store",
        "establishment"
      ],
      "business_status": "OPERATIONAL"
    },
    {
      "place_id": "ChIJg1hMcyYnGJYRhLMxIU67Wq4",
      "name": "Supermercado O'Higgins",
      "address": "San Bernardo 301, Puerto Varas",
      "lat": -41.3166237,
      "lon": -72.9853304,
      "rating": 4.3,
      "user_ratings_total": 505,
      "types": [
        "supermarket",
        "grocery_or_supermarket",
        "point_of_interest",
        "food",
        "store",
        "establishment"
      ],
      "business_status": "OPERATIONAL"
    },
    {
      "place_id": "ChIJ3zl0AWc2FpYRYf3WfcX63DA",
      "name": "Supermercado Lider",
      "address": "Errázuriz 1358, Osorno",
      "lat": -40.5730267,
      "lon": -73.1264423,
      "rating": 4,
      "user_ratings_total": 4656,
      "types": [
        "supermarket",
        "grocery_or_supermarket",
        "store",
        "food",
        "point_of_interest",
        "establishment"
      ],
      "business_status": "OPERATIONAL"
    },
    {
      "place_id": "ChIJPXE0XeI1FpYRE_R9aPeJDCc",
      "name": "Supermercado Lider",
      "address": "Av. René Soriano 2855, Osorno",
      "lat": -40.5895012,
      "lon": -73.1039882,
      "rating": 4.2,
      "user_ratings_total": 4753,
      "types": [
        "supermarket",
        "grocery_or_supermarket",
        "store",
        "food",
        "point_of_interest",
        "establishment"
      ],
      "business_status": "OPERATIONAL"
    },
    {
      "place_id": "ChIJOXB2eHc2FpYRUhuGILTcBw0",
      "name": "Express de Lider",
      "address": "Cesar Ercilla 1740, Osorno",
      "lat": -40.5872148,
      "lon": -73.1226154,
      "rating": 4.2,
      "user_ratings_total": 2666,
      "types": [
        "supermarket",
        "grocery_or_supermarket",
        "store",
        "food",
        "point_of_interest",
        "establishment"
      ],
      "business_status": "OPERATIONAL"
    },
    {
      "place_id": "ChIJP5vqLMA2FpYRu5hXP2fcMDE",
      "name": "Super Bodega aCuenta",
      "address": "Av. República 870, Osorno",
      "lat": -40.5734015,
      "lon": -73.1590591,
      "rating": 4.1,
      "user_ratings_total": 874,
      "types": [
        "supermarket",
        "grocery_or_supermarket",
        "store",
        "food",
        "point_of_interest",
        "establishment"
      ],
      "business_status": "OPERATIONAL"
    },
    {
      "place_id": "ChIJLXqEEHI2FpYRR03wtQP8-o8",
      "name": "Santa Isabel",
      "address": "Cesar Ercilla 1075, Osorno",
      "lat": -40.581286,
      "lon": -73.117278,
      "rating": 4.2,
      "user_ratings_total": 2377,
      "types": [
        "supermarket",
        "grocery_or_supermarket",
        "store",
        "food",
        "point_of_interest",
        "establishment"
      ],
      "business_status": "OPERATIONAL"
    },
    {
      "place_id": "ChIJY5JpmMY3FpYRFFmJ982aWpM",
      "name": "Supermercados Cugat",
      "address": "Patricio Lynch 1354, Osorno",
      "lat": -40.5738682,
      "lon": -73.12678009999999,
      "rating": 3.9,
      "user_ratings_total": 2409,
      "types": [
        "supermarket",
        "grocery_or_supermarket",
        "store",
        "food",
        "point_of_interest",
        "establishment"
      ],
      "business_status": "OPERATIONAL"
    },
    {
      "place_id": "ChIJqeMDWes2FpYRvlNCc7QXFwc",
      "name": "Santa Isabel",
      "address": "Av. República 360, Osorno",
      "lat": -40.573696,
      "lon": -73.15051799999999,
      "rating": 4.1,
      "user_ratings_total": 2367,
      "types": [
        "supermarket",
        "grocery_or_supermarket",
        "store",
        "food",
        "point_of_interest",
        "establishment"
      ],
      "business_status": "OPERATIONAL"
    },
    {
      "place_id": "ChIJO6I64mA2FpYRchSEj0GCHig",
      "name": "Jumbo",
      "address": "PLAZA YUNGAY 645, Osorno",
      "lat": -40.574608,
      "lon": -73.129588,
      "rating": 4.3,
      "user_ratings_total": 5506,
      "types": [
        "supermarket",
        "grocery_or_supermarket",
        "store",
        "food",
        "point_of_interest",
        "establishment"
      ],
      "business_status": "OPERATIONAL"
    },
    {
      "place_id": "ChIJvce576I3FpYRJ_PULaPVAsA",
      "name": "Central Mayorista",
      "address": "Av. Julio Buschmann 2426, Osorno",
      "lat": -40.5772247,
      "lon": -73.10630379999999,
      "rating": 3.4,
      "user_ratings_total": 46,
      "types": [
        "supermarket",
        "grocery_or_supermarket",
        "store",
        "food",
        "point_of_interest",
        "establishment"
      ],
      "business_status": "OPERATIONAL"
    },
    {
      "place_id": "ChIJgV7zJEU1FpYRvG2w_AsW94c",
      "name": "Unimarc",
      "address": "Av. Francia, Osorno",
      "lat": -40.593869,
      "lon": -73.1119314,
      "rating": 4.1,
      "user_ratings_total": 193,
      "types": [
        "supermarket",
        "grocery_or_supermarket",
        "store",
        "food",
        "point_of_interest",
        "establishment"
      ],
      "business_status": "OPERATIONAL"
    },
    {
      "place_id": "ChIJ43BkBlIqrpYRlPOSdyparL4",
      "name": "Supermercado Lider",
      "address": "Caparrosa, Av. Pedro Aguirre Cerda, Antofagasta",
      "lat": -23.5645086,
      "lon": -70.39047219999999,
      "rating": 4.1,
      "user_ratings_total": 5712,
      "types": [
        "supermarket",
        "grocery_or_supermarket",
        "food",
        "point_of_interest",
        "store",
        "establishment"
      ],
      "business_status": "OPERATIONAL"
    },
    {
      "place_id": "ChIJCw4cjG7Vr5YRYx0CNjJAd5Q",
      "name": "Supermercado Lider",
      "address": "José Ignacio Zenteno 21, Antofagasta",
      "lat": -23.6368112,
      "lon": -70.3964258,
      "rating": 4.2,
      "user_ratings_total": 7072,
      "types": [
        "supermarket",
        "grocery_or_supermarket",
        "food",
        "point_of_interest",
        "store",
        "establishment"
      ],
      "business_status": "OPERATIONAL"
    },
    {
      "place_id": "ChIJX1-W_dIqrpYRFMhyST981zY",
      "name": "Express de Lider",
      "address": "Av. Edmundo Pérez Zujovic, Antofagasta",
      "lat": -23.6197451,
      "lon": -70.39213459999999,
      "rating": 4.4,
      "user_ratings_total": 2498,
      "types": [
        "supermarket",
        "grocery_or_supermarket",
        "food",
        "point_of_interest",
        "store",
        "establishment"
      ],
      "business_status": "OPERATIONAL"
    },
    {
      "place_id": "ChIJDVSmQ-MJrJYRF7l7crZOYTg",
      "name": "Supermercado Lider",
      "address": "Huaytiquina 1425, local 6, Calama",
      "lat": -22.4361333,
      "lon": -68.91391589999999,
      "rating": 4.2,
      "user_ratings_total": 3051,
      "types": [
        "supermarket",
        "grocery_or_supermarket",
        "food",
        "point_of_interest",
        "store",
        "establishment"
      ],
      "business_status": "OPERATIONAL"
    },
    {
      "place_id": "ChIJU55f7gPLkZYR-4Gn5xZxc-w",
      "name": "Supermercado Lider",
      "address": "Av Guillermo Ulriksen 3128, La Serena",
      "lat": -29.9441368,
      "lon": -71.24144249999999,
      "rating": 4.3,
      "user_ratings_total": 4305,
      "types": [
        "supermarket",
        "grocery_or_supermarket",
        "food",
        "point_of_interest",
        "store",
        "establishment"
      ],
      "business_status": "OPERATIONAL"
    },
    {
      "place_id": "ChIJf3Kqy87LkZYRfqyS86NiqP8",
      "name": "Supermercado Lider",
      "address": "Regimiento Arica 6145, La Serena",
      "lat": -29.94916199999999,
      "lon": -71.2695,
      "rating": 4.2,
      "user_ratings_total": 6045,
      "types": [
        "supermarket",
        "grocery_or_supermarket",
        "food",
        "point_of_interest",
        "store",
        "establishment"
      ],
      "business_status": "OPERATIONAL"
    },
    {
      "place_id": "ChIJXSdgOwHLkZYR_bcJQ8uXDPc",
      "name": "Supermercado Lider",
      "address": "Avda. Fco de Aguirre 02, La Serena",
      "lat": -29.901321,
      "lon": -71.25769670000001,
      "rating": 4.2,
      "user_ratings_total": 14472,
      "types": [
        "supermarket",
        "grocery_or_supermarket",
        "food",
        "point_of_interest",
        "store",
        "establishment"
      ],
      "business_status": "OPERATIONAL"
    },
    {
      "place_id": "ChIJyZFzhxHJkZYRPJyc4Oh1C4Q",
      "name": "Lider Coquimbo",
      "address": "Domeyko 55, Coquimbo",
      "lat": -29.9671483,
      "lon": -71.33270499999999,
      "rating": 4.1,
      "user_ratings_total": 4726,
      "types": [
        "supermarket",
        "grocery_or_supermarket",
        "food",
        "point_of_interest",
        "store",
        "establishment"
      ],
      "business_status": "OPERATIONAL"
    },
    {
      "place_id": "ChIJcUL65WPLkZYRzs5oSLu9jd0",
      "name": "Express de Líder La Florida",
      "address": "La Serena",
      "lat": -29.9216887,
      "lon": -71.2084383,
      "rating": 4.4,
      "user_ratings_total": 963,
      "types": [
        "supermarket",
        "grocery_or_supermarket",
        "food",
        "point_of_interest",
        "store",
        "establishment"
      ],
      "business_status": "OPERATIONAL"
    },
    {
      "place_id": "ChIJvytpqEPKkZYRbGU_3mcPbvE",
      "name": "Express de Lider",
      "address": "Av. Balmaceda 2154, La Serena",
      "lat": -29.92160549999999,
      "lon": -71.25399560000001,
      "rating": 4.3,
      "user_ratings_total": 2872,
      "types": [
        "supermarket",
        "grocery_or_supermarket",
        "food",
        "point_of_interest",
        "store",
        "establishment"
      ],
      "business_status": "OPERATIONAL"
    },
    {
      "place_id": "ChIJx87AnUvFZZYR0oq8UPR9GXc",
      "name": "Supermercado Lider",
      "address": "Avenida Colín 0240, Talca",
      "lat": -35.4411492,
      "lon": -71.683675,
      "rating": 4.2,
      "user_ratings_total": 4610,
      "types": [
        "supermarket",
        "grocery_or_supermarket",
        "point_of_interest",
        "food",
        "store",
        "establishment"
      ],
      "business_status": "OPERATIONAL"
    },
    {
      "place_id": "ChIJgyAcKb3GZZYR9Rl_u1EB9YE",
      "name": "Líder Talca",
      "address": "Dos Nte. 1422, Talca",
      "lat": -35.4255362,
      "lon": -71.6548061,
      "rating": 4.1,
      "user_ratings_total": 6646,
      "types": [
        "supermarket",
        "grocery_or_supermarket",
        "point_of_interest",
        "food",
        "store",
        "establishment"
      ],
      "business_status": "OPERATIONAL"
    },
    {
      "place_id": "ChIJbYYc3cTHZZYR1mdwLeHGSt0",
      "name": "Express de Lider",
      "address": "2 Sur 2015, Talca",
      "lat": -35.4294913,
      "lon": -71.6463351,
      "rating": 4.1,
      "user_ratings_total": 2269,
      "types": [
        "supermarket",
        "grocery_or_supermarket",
        "point_of_interest",
        "food",
        "store",
        "establishment"
      ],
      "business_status": "OPERATIONAL"
    },